ID,LOCATION_GROUP,LOCATION_TYPE,LOCATION_CODE,LOCATION,LONGITUDE,LATITUDE
1,Hizmet Binasi,Bina,METRO-T4 Habipler,ARNAVUTKÖY,28.843808,41.12222
2,Hizmet Binasi,Bina,059-Arnavutkoy Mezarliklar,ARNAVUTKÖY,28.751046,41.179543
3,Hizmet Binasi,Bina,001-Atasehir Darulaceze Tip Merkezi,ATAŞEHİR,29.147271,40.977937
4,Hizmet Binasi,Bina,001-Cobancesme Kurumsal Atik,BAHÇELİEVLER,28.825496,40.997055
5,Hizmet Binasi,Bina,061-Bahcelievler Yol Bakim,BAHÇELİEVLER,28.825249,40.99704
6,Hizmet Binasi,Bina,001-Florya Baskanlik Konutu,BAKIRKÖY,28.78744,40.975036
7,Hizmet Binasi,Bina,METRO-M1B Kirazli,BAĞCILAR,28.842542,41.031971
8,Hizmet Binasi,Bina,001-Beylikduzu Vektorler Birimi,BEYLİKDÜZÜ,28.642354,41.000244
9,Hizmet Binasi,Bina,001-IBB Beyoglu Sehir Planlama,BEYOĞLU,28.974385,41.03177
10,Hizmet Binasi,Bina,063-Esenler Belediye Binasi,ESENLER,28.867578,41.054031
11,Hizmet Binasi,Bina,001-Esenler Otogar Beyaz Masa,ESENLER,28.894728,41.040605
12,Hizmet Binasi,Bina,ISADEM-Esenler,ESENLER,28.874942,41.044544
13,Hizmet Binasi,Bina,METRO-M1 Esenler,ESENLER,28.886224,41.038367
14,Hizmet Binasi,Bina,001-IBB Eurodesk Temas Noktasi,FATİH,28.975377,41.012464
15,Hizmet Binasi,Bina,001-IBB Fatih Hayvan Hastanesi,FATİH,28.953686,41.016743
16,Hizmet Binasi,Bina,001-IBB Sarachane Genel Sekreterlik,FATİH,28.955329,41.013452
17,Hizmet Binasi,Bina,001-IBB Sarachane Hizmet Binasi,FATİH,28.955328,41.013451
18,Hizmet Binasi,Bina,001-IBB Kartal Ek Hizmet Binasi,KARTAL,29.188055,40.912915
19,Hizmet Binasi,Bina,001-Kartal Cevre Koruma,KARTAL,29.186798,40.912949
20,Hizmet Binasi,Bina,001-Kartal Ilaclama Birimi,KARTAL,29.188325,40.914345
21,Hizmet Binasi,Bina,ISADEM-Kartal ,KARTAL,29.167631,40.910637
22,Hizmet Binasi,Bina,ISTTELKOM-Kartal Depo,KARTAL,29.188725,40.908255
23,Hizmet Binasi,Bina,001-Seyrantepe IBB Depolari,KAĞITHANE,28.994933,41.101021
24,Hizmet Binasi,Bina,001-Seyrantepe Rayli Sistemler Mudurlugu,KAĞITHANE,28.993083,41.10109
25,Hizmet Binasi,Bina,ISKI-Genel Mudurluk,KAĞITHANE,28.963528,41.085894
26,Hizmet Binasi,Bina,059-Kucukcekmece Mezarliklar,KÜÇÜKÇEKMECE,28.770549,40.986965
27,Hizmet Binasi,Bina,001-Pendik BeyazMasa,PENDİK,29.23489,40.876219
28,Hizmet Binasi,Bina,001-Pendik Deniz Hizmetleri,PENDİK,29.23887,40.875228
29,Hizmet Binasi,Bina,ISBAK-Sariyer Tunel Birimi,SARIYER,29.026577,41.158185
30,Hizmet Binasi,Bina,059-Sultanbeyli Mezarliklar,SULTANBEYLİ,29.258734,40.968617
31,Hizmet Binasi,Bina,001-Cirpici Destek Hizmetleri,ZEYTİNBURNU,28.888033,41.000837
32,Hizmet Binasi,Bina,ISADEM-Zeytinburnu,ZEYTİNBURNU,28.90418,40.992576
33,Hizmet Binasi,Bina,059-Cekmekoy Mezarliklar,ÇEKMEKÖY,29.182762,41.043525
34,Hizmet Binasi,Bina,METRO-M5 Umraniye Carsi,ÜMRANİYE,29.096637,41.026438
35,Hizmet Binasi,Bina,METRO-M5 Uskudar,ÜSKÜDAR,29.014,41.025858
36,Hizmet Binasi,Bina,ISTTELKOM-Genel Mudurluk,ŞİŞLİ,28.994621,41.061808
37,Hizmet Binasi,Bina,061-Sisli Yol Bakim,ŞİŞLİ,28.966969,41.058538
38,Hizmet Binasi,Engelliler,003-Umraniye Engelliler Merkezi,ÜMRANİYE,29.124633,41.021038
39,Hizmet Binasi,Hal,004-Bayrampasa Hal Baskanlik,BAYRAMPAŞA,28.887653,41.051808
40,Hizmet Binasi,Hal,004-Fatih Kumkapi Balik Hali,FATİH,28.962793,41.002499
41,Hizmet Binasi,Itfaiye,007-Arnavutkoy Itfaiye,ARNAVUTKÖY,28.72888,41.201328
42,Hizmet Binasi,Itfaiye,007-Atasehir Kayisdagi Itfaiye,ATAŞEHİR,29.147047,40.979311
43,Hizmet Binasi,Itfaiye,007-Bahcelievler Kocasinan Itfaiye,BAHÇELİEVLER,28.837072,41.013993
44,Hizmet Binasi,Itfaiye,007-Florya Itfaiye,BAKIRKÖY,28.808223,40.963388
45,Hizmet Binasi,Itfaiye,007-Bayrampasa Altintepsi Itfaiye,BAYRAMPAŞA,28.896352,41.039499
46,Hizmet Binasi,Itfaiye,007-Bagcilar Itfaiye,BAĞCILAR,28.858637,41.050171
47,Hizmet Binasi,Itfaiye,007-Basaksehir Kayasehir Resneli Itfaiye,BAŞAKŞEHİR,28.741173,41.083278
48,Hizmet Binasi,Itfaiye,007-Beykoz Itfaiye,BEYKOZ,29.098316,41.134308
49,Hizmet Binasi,Itfaiye,007-Beykoz Cavusbasi Itfaiye,BEYKOZ,29.139013,41.07442
50,Hizmet Binasi,Itfaiye,007-Beykoz Kavacik Itfaiye,BEYKOZ,41.093551,41.093551
51,Hizmet Binasi,Itfaiye,007-Besiktas Itfaiye,BEŞİKTAŞ,29.019256,41.048836
52,Hizmet Binasi,Itfaiye,007-Buyukcekmece Kumburgaz Itfaiye,BÜYÜKÇEKMECE,28.468128,41.039792
53,Hizmet Binasi,Itfaiye,007-Buyukcekmece Mimar Sinan Itfaiye,BÜYÜKÇEKMECE,28.544933,41.012864
54,Hizmet Binasi,Itfaiye,007-Eyupsultan Aksemsettin Itfaiye,EYÜPSULTAN,28.917327,41.091811
55,Hizmet Binasi,Itfaiye,007-Eyupsultan Itfaiye Amirligi,EYÜPSULTAN,28.9194,41.048042
56,Hizmet Binasi,Itfaiye,007-Eyupsultan Kemerburgaz Itfaiye,EYÜPSULTAN,28.911409,41.157198
57,Hizmet Binasi,Itfaiye,007-Hasdal Afad Itfaiye,EYÜPSULTAN,28.947696,41.094413
58,Hizmet Binasi,Itfaiye,007-Kadikoy Itfaiye,KADIKÖY,29.033316,40.991251
59,Hizmet Binasi,Itfaiye,007-Kartal Yakacik Itfaiye,KARTAL,29.214861,40.943557
60,Hizmet Binasi,Itfaiye,007-Kagithane Itfaiye,KAĞITHANE,28.965102,41.086244
61,Hizmet Binasi,Itfaiye,007-Seyrantepe Itfaiye,KAĞITHANE,28.988797,41.095948
62,Hizmet Binasi,Itfaiye,007-Kagithane Sadabad Itfaiye,KAĞITHANE,28.955955,41.065614
63,Hizmet Binasi,Itfaiye,007-Maltepe Buyukbakkalkoy Itfaiye,MALTEPE,29.205994,40.972446
64,Hizmet Binasi,Itfaiye,007-Pendik Yenisehir Itfaiye,PENDİK,29.305208,40.940642
65,Hizmet Binasi,Itfaiye,007-Sancaktepe Yenidogan Itfaiye,SANCAKTEPE,29.244518,41.015628
66,Hizmet Binasi,Itfaiye,007-Sariyer Haciosman Itfaiye,SARIYER,29.026522,41.135922
67,Hizmet Binasi,Itfaiye,007-Sariyer Istinye Itfaiye,SARIYER,29.054755,41.11489
68,Hizmet Binasi,Itfaiye,007-Silivri Canta Itfaiye,SİLİVRİ,28.079969,41.085608
69,Hizmet Binasi,Itfaiye,007-Catalca Itfaiye,ÇATALCA,28.462017,41.149553
70,Hizmet Binasi,Itfaiye,007-Uskudar Unalan Itfaiye,ÜSKÜDAR,29.072233,41.001856
71,Hizmet Binasi,Itfaiye,007-Uskudar Zeynep Kamil Itfaiye,ÜSKÜDAR,29.024381,41.013839
72,Hizmet Binasi,PDM,PDM-Avcilar,AVCILAR,28.739611,40.977103
73,Hizmet Binasi,PDM,PDM-Bagcilar,BAĞCILAR,28.834522,41.028157
74,Hizmet Binasi,PDM,PDM-Eyup Sultan Nisanca,EYÜPSULTAN,28.930023,41.040696
75,Hizmet Binasi,PDM,PDM-Gaziosmanpasa,GAZİOSMANPAŞA,28.897606,41.066778
76,Hizmet Binasi,PDM,PDM-Umraniye,ÜMRANİYE,29.107246,41.023481
77,Hizmet Binasi,PDM,PDM-Uskudar,ÜSKÜDAR,29.028444,41.015376
78,Hizmet Binasi,PDM,PDM-Sisli,ŞİŞLİ,28.998286,41.066891
79,Hizmet Binasi,PTM,PDM-Beyoglu,BEYOĞLU,28.949742,41.050079
80,Hizmet Binasi,Zabita,009-Edirnekapi Zabita,EYÜPSULTAN,28.927929,41.027574
81,Hizmet Binasi,Zabita,009-Kartal Zabita,KARTAL,29.183042,40.912491
82,Hizmet Binasi,Zabita,009-Zeytinburnu Zabita,ZEYTİNBURNU,28.889221,41.001069
83,Ismek,Ismek,ISMEK-Arnavutkoy,ARNAVUTKÖY,28.739451,41.182384
84,Ismek,Ismek,ISMEK-Atasehir,ATAŞEHİR,9.080466,40.995478
85,Ismek,Ismek,ISMEK-Avcilar Parseller,AVCILAR,28.706322,40.994455
86,Ismek,Ismek,ISMEK-Bakirkoy Guzellik Merkezi,BAKIRKÖY,28.876283,40.995383
87,Ismek,Ismek,ISMEK-Bagcilar Baglar,BAĞCILAR,28.82586,41.030899
88,Ismek,Ismek,ISMEK-Bagcilar Yildiztepe,BAĞCILAR,28.85434,41.029452
89,Ismek,Ismek,ISMEK-Esenler Fatih Mahallesi,ESENLER,28.841603,41.021787
90,Ismek,Ismek,ISMEK-Capa,FATİH,28.932387,41.013871
91,Ismek,Ismek,ISMEK-Findikzade,FATİH,28.93918,41.013647
92,Ismek,Ismek,ISMEK-Kozyatagi,KADIKÖY,29.0967,40.974644
93,Ismek,Ismek,ISMEK-Rasimpasa,KADIKÖY,29.026507,40.994132
94,Kultur Merkezi,KulturMerkezi,012-Enver Oren Kultur Merkezi,BAHÇELİEVLER,28.818754,41.013616
95,Kultur Merkezi,KulturMerkezi,012-Taksim Sanat Galerisi,BEYOĞLU,28.984351,41.036582
96,Kultur Merkezi,KulturMerkezi,012-Adem Basturk Kultur Merkezi,ESENLER,28.884195,41.040078
97,Kultur Merkezi,KulturMerkezi,012-Ali Emiri Kultur Merkezi,FATİH,28.939853,41.019603
98,Kultur Merkezi,KulturMerkezi,013-Fatih Resat Nuri Sahnesi,FATİH,28.956106,41.015937
99,Kultur Merkezi,KulturMerkezi,013-Kagithane Sehir Tiyatrolari,KAĞITHANE,28.970873,41.07938
100,Kultur Merkezi,KulturMerkezi,012-Idris Gulluce Kultur Merkezi,TUZLA,29.30279,40.849875
101,Kultur Merkezi,KulturMerkezi,013-Muhsin Ertugrul Sahnesi,ŞİŞLİ,28.988714,41.046384
102,Kutuphane,Kutuphane,014-Baris Manco Halk ve Cocuk Kutuphanesi,ESENLER,28.873136,41.053895
103,Kutuphane,Kutuphane,014-Esenler Millet Bahcesi Kutuphanesi,ESENLER,28.880071,41.059893
104,Kutuphane,Kutuphane,014-Erdem Beyazit Kutuphanesi,EYÜPSULTAN,28.925762,41.078847
105,Kutuphane,Kutuphane,014-Ahmet Kabakli Kutuphanesi,FATİH,28.939788,41.019462
106,Kutuphane,Kutuphane,014-Ayse Hatun Tekkesi Kutuphanesi,FATİH,28.934745,41.026045
107,Kutuphane,Kutuphane,014-Kartal Halil Inalcik Kutuphanesi,KARTAL,29.161455,40.905838
108,Kutuphane,Kutuphane,014-Sefakoy Metin And Kutuphanesi,KÜÇÜKÇEKMECE,28.792729,40.997973
109,Kutuphane,Kutuphane,014-Sultangazi Ahmed Arif Halk Kutuphanesi,SULTANGAZİ,28.905229,41.09394
110,Kutuphane,Kutuphane,014-Alemdag Fatma Aliye Kutuphanesi,ÇEKMEKÖY,29.238127,41.053129
111,Otobus Duragi,Durak,038-Kozyatagi Otobus Duragi,KADIKÖY,29.099479,40.975596
112,Metrobus Duragi,Metrobus Duragi,069-Avcilar Merkez Universite Metrobus Duragi,AVCILAR,28.725085,40.984185
113,Metrobus Duragi,Metrobus Duragi,069-Cihangir Universite Metrobus Duragi,AVCILAR,28.713621,40.990787
114,Metrobus Duragi,Metrobus Duragi,069-Mustafa Kemal Pasa Metrobus Duragi,AVCILAR,28.706011,40.995149
115,Metrobus Duragi,Metrobus Duragi,069-Saadetdere Mahallesi Metrobus Duragi,AVCILAR,28.694133,40.99984
116,Metrobus Duragi,Metrobus Duragi,069-Sukrubey Metrobus Duragi,AVCILAR,28.731334,40.980361
117,Metrobus Duragi,Metrobus Duragi,069-Bahcelievler Metrobus Duragi,BAHÇELİEVLER,28.863467,40.995052
118,Metrobus Duragi,Metrobus Duragi,069-Yenibosna Metrobus Duragi,BAHÇELİEVLER,28.834646,40.992408
119,Metrobus Duragi,Metrobus Duragi,069-Incirli Metrobus Duragi,BAKIRKÖY,28.872508,40.997895
120,Metrobus Duragi,Metrobus Duragi,069-Bayrampasa Maltepe Metrobus Duragi,BAYRAMPAŞA,28.921474,41.023941
121,Metrobus Duragi,Metrobus Duragi,069-Beykent Hadimkoy Metrobus Duragi,BEYLİKDÜZÜ,28.631704,41.019284
122,Metrobus Duragi,Metrobus Duragi,069-Beylikduzu Belediye Metrobus Duragi,BEYLİKDÜZÜ,28.649426,41.012535
123,Metrobus Duragi,Metrobus Duragi,069-Beylikduzu Metrobus Duragi,BEYLİKDÜZÜ,28.656623,41.009845
124,Metrobus Duragi,Metrobus Duragi,069-Beylikduzu Tuyap Metrobus Duragi,BEYLİKDÜZÜ,28.625046,41.022027
125,Metrobus Duragi,Metrobus Duragi,069-Cumhuriyet Mahallesi Metrobus Duragi,BEYLİKDÜZÜ,28.640886,41.015778
126,Metrobus Duragi,Metrobus Duragi,069-Haramidere Metrobus Duragi,BEYLİKDÜZÜ,28.673333,41.006074
127,Metrobus Duragi,Metrobus Duragi,069-Halicioglu Metrobus Duragi,BEYOĞLU,28.946172,41.048676
128,Metrobus Duragi,Metrobus Duragi,069-Edirnekapi Metrobus Duragi,EYÜPSULTAN,28.929616,41.033459
129,Metrobus Duragi,Metrobus Duragi,069-Ayvansaray Metrobus Duragi,FATİH,28.937235,41.038498
130,Metrobus Duragi,Metrobus Duragi,069-Topkapi Metrobus Duragi,FATİH,28.91748,41.020437
131,Metrobus Duragi,Metrobus Duragi,069-Merter Metrobus Duragi,GÜNGÖREN,28.897702,41.007885
132,Metrobus Duragi,Metrobus Duragi,069-Fikirtepe Metrobus Duragi,KADIKÖY,29.047076,40.993701
133,Metrobus Duragi,Metrobus Duragi,069-Sogutlucesme Metrobus Duragi,KADIKÖY,29.037621,40.991664
134,Metrobus Duragi,Metrobus Duragi,069-Caglayan Metrobus Duragi,KAĞITHANE,28.980888,41.067502
135,Metrobus Duragi,Metrobus Duragi,069-Okmeydani Hastane Metrobus Duragi,KAĞITHANE,28.976454,41.067471
136,Metrobus Duragi,Metrobus Duragi,069-Okmeydani Metrobus Duragi,KAĞITHANE,28.96149,41.05669
137,Metrobus Duragi,Metrobus Duragi,069-Kucukcekmece Metrobus Duragi,KÜÇÜKÇEKMECE,28.768571,40.98623
138,Metrobus Duragi,Metrobus Duragi,069-Cevizlibag Metrobus Duragi,ZEYTİNBURNU,28.911086,41.016526
139,Metrobus Duragi,Metrobus Duragi,069-Zeytinburnu Metrobus Duragi,ZEYTİNBURNU,28.891292,41.00358
140,Metrobus Duragi,Metrobus Duragi,069-15 Temmuz Sehitler Koprusu Metrobus Duragi,ÜSKÜDAR,29.042553,41.036865
141,Metrobus Duragi,Metrobus Duragi,069-Acibadem Metrobus Duragi,ÜSKÜDAR,29.056885,41.014909
142,Metrobus Duragi,Metrobus Duragi,069-Altunizade Metrobus Duragi,ÜSKÜDAR,29.048627,41.021535
143,Metrobus Duragi,Metrobus Duragi,069-Burhaniye Metrobus Duragi,ÜSKÜDAR,29.046886,41.031935
144,Metrobus Duragi,Metrobus Duragi,069-Mecidiyekoy Metrobus Duragi,ŞİŞLİ,28.991766,41.066865
145,Metrobus Duragi,Metrobus Duragi,069-Zincirlikuyu Metrobus Duragi,ŞİŞLİ,29.012712,41.066239
146,Sehir Hatlari Iskelesi,Iskele,027-Beykoz Anadolu Hisari Iskelesi,BEYKOZ,29.066626,41.083229
147,Sehir Hatlari Iskelesi,Iskele,027-Karakoy Iskele,BEYOĞLU,28.976729,41.021744
148,Sehir Hatlari Iskelesi,Iskele,027-Besiktas Kadikoy Iskelesi,BEŞİKTAŞ,29.00548,41.040095
149,Sehir Hatlari Iskelesi,Iskele,027-Besiktas Uskudar Iskelesi,BEŞİKTAŞ,29.007688,41.04247
150,Sehir Hatlari Iskelesi,Iskele,027-Eminonu Bogaz Iskelesi,FATİH,28.973894,41.017585
151,Sehir Hatlari Iskelesi,Iskele,027-Eminonu Kadikoy Iskelesi,FATİH,28.972923,41.018207
152,Sehir Hatlari Iskelesi,Iskele,027-Eminonu Uskudar Iskelesi,FATİH,28.973976,41.017609
153,Sehir Hatlari Iskelesi,Iskele,027-Kadikoy Eminonu Iskelesi,KADIKÖY,29.02325,40.992703
154,Sehir Hatlari Iskelesi,Iskele,027-Uskudar Iskelesi,ÜSKÜDAR,29.014881,41.027275
155,Sehir Hatlari Vapuru,Sehir Hatlari Vapuru,Sehir Hatlari Ahmet Hulusi Yıldırım Vapuru,Sehir Hatlari Vapuru,0,0
156,Sehir Hatlari Vapuru,Sehir Hatlari Vapuru,Sehir Hatlari Baris Manco Vapuru,Sehir Hatlari Vapuru,0,0
157,Sehir Hatlari Vapuru,Sehir Hatlari Vapuru,Sehir Hatlari Besiktas Vapuru,Sehir Hatlari Vapuru,0,0
158,Sehir Hatlari Vapuru,Sehir Hatlari Vapuru,Sehir Hatlari Beykoz Vapuru,Sehir Hatlari Vapuru,0,0
159,Sehir Hatlari Vapuru,Sehir Hatlari Vapuru,Sehir Hatlari Beyoglu Vapuru,Sehir Hatlari Vapuru,0,0
160,Sehir Hatlari Vapuru,Sehir Hatlari Vapuru,Sehir Hatlari Durusu Vapuru,Sehir Hatlari Vapuru,0,0
161,Sehir Hatlari Vapuru,Sehir Hatlari Vapuru,Sehir Hatlari Emin Kul Vapuru,Sehir Hatlari Vapuru,0,0
162,Sehir Hatlari Vapuru,Sehir Hatlari Vapuru,Sehir Hatlari Fahri S. Koruturk Vapuru,Sehir Hatlari Vapuru,0,0
163,Sehir Hatlari Vapuru,Sehir Hatlari Vapuru,Sehir Hatlari Fatih Vapuru,Sehir Hatlari Vapuru,0,0
164,Sehir Hatlari Vapuru,Sehir Hatlari Vapuru,Sehir Hatlari Goksu Vapuru,Sehir Hatlari Vapuru,0,0
165,Sehir Hatlari Vapuru,Sehir Hatlari Vapuru,Sehir Hatlari Gumussu Vapuru,Sehir Hatlari Vapuru,0,0
166,Sehir Hatlari Vapuru,Sehir Hatlari Vapuru,Sehir Hatlari Haskoy Vapuru,Sehir Hatlari Vapuru,0,0
167,Sehir Hatlari Vapuru,Sehir Hatlari Vapuru,Sehir Hatlari Istanbul 9 Vapuru,Sehir Hatlari Vapuru,0,0
168,Sehir Hatlari Vapuru,Sehir Hatlari Vapuru,Sehir Hatlari Kadikoy Vapuru,Sehir Hatlari Vapuru,0,0
169,Sehir Hatlari Vapuru,Sehir Hatlari Vapuru,Sehir Hatlari Kucuksu Vapuru,Sehir Hatlari Vapuru,0,0
170,Sehir Hatlari Vapuru,Sehir Hatlari Vapuru,Sehir Hatlari Moda Vapuru,Sehir Hatlari Vapuru,0,0
171,Sehir Hatlari Vapuru,Sehir Hatlari Vapuru,Sehir Hatlari Mustafa Aydogdu Vapuru,Sehir Hatlari Vapuru,0,0
172,Sehir Hatlari Vapuru,Sehir Hatlari Vapuru,Sehir Hatlari Nurettin Alptogan Vapuru,Sehir Hatlari Vapuru,0,0
173,Sehir Hatlari Vapuru,Sehir Hatlari Vapuru,Sehir Hatlari Prof. Dr. Aykut Barka Vapuru,Sehir Hatlari Vapuru,0,0
174,Sehir Hatlari Vapuru,Sehir Hatlari Vapuru,Sehir Hatlari Prof. Dr. Fuat Sezgin Vapuru,Sehir Hatlari Vapuru,0,0
175,Sehir Hatlari Vapuru,Sehir Hatlari Vapuru,Sehir Hatlari Sariyer Vapuru,Sehir Hatlari Vapuru,0,0
176,Sehir Hatlari Vapuru,Sehir Hatlari Vapuru,Sehir Hatlari Sehit Ilker Karter Vapuru,Sehir Hatlari Vapuru,0,0
177,Sehir Hatlari Vapuru,Sehir Hatlari Vapuru,Sehir Hatlari Sehit Metin Sulus Vapuru,Sehir Hatlari Vapuru,0,0
178,Sehir Hatlari Vapuru,Sehir Hatlari Vapuru,Sehir Hatlari Sutluce Vapuru,Sehir Hatlari Vapuru,0,0
179,Sehir Hatlari Vapuru,Sehir Hatlari Vapuru,Sehit Hatlari Sehit Sami Akbulut Vapuru,Sehir Hatlari Vapuru,0,0
180,Sosyal Tesis,Sosyal,024-Florya Sosyal Tesisleri,BAKIRKÖY,28.807531,40.960245
181,Sosyal Tesis,Sosyal,024-Kasimpasa Sosyal Tesisleri,BEYOĞLU,28.9668,41.029852
182,Sosyal Tesis,Sosyal,024-Halic Sosyal Tesisleri,EYÜPSULTAN,28.957179,41.0282
183,Sosyal Tesis,Sosyal,024-Dragos Sosyal Tesisleri,KARTAL,29.146659,40.901284
184,Sosyal Tesis,Sosyal,024-Istinye Sosyal Tesisleri,SARIYER,29.054999,41.11476
185,Sosyal Tesis,Sosyal,024-Sultanbeyli Golet Sosyal Tesisleri,SULTANBEYLİ,29.276736,40.954095
186,Spor Tesisi,Spor,025-Avcilar Spor Kompleksi,AVCILAR,28.721574,40.99691
187,Spor Tesisi,Spor,025-Bayrampasa IBB Stadi ve Spor Tesisi,BAYRAMPAŞA,28.886847,41.064818
188,Spor Tesisi,Spor,025-Bayrampasa Spor Kompleksi,BAYRAMPAŞA,28.910331,41.044596
189,Spor Tesisi,Spor,025-IBB Beyoglu Stadi,BEYOĞLU,28.949284,41.055284
190,Spor Tesisi,Spor,025-Buyukcekmece Guzelce Tenis Kortu,BÜYÜKÇEKMECE,28.493941,41.0111
191,Spor Tesisi,Spor,025-Esenler IBB Stadi,ESENLER,28.879916,41.053893
192,Spor Tesisi,Spor,025-Esenler Spor Kompleksi,ESENLER,28.878994,41.053019
193,Spor Tesisi,Spor,025-Esenler Hakki Basar Spor Kompleksi,ESENLER,28.866389,41.04529
194,Spor Tesisi,Spor,025-Eyupsultan Yesilpinar Yuzme Havuzu,EYÜPSULTAN,28.925808,41.078683
195,Spor Tesisi,Spor,025-Fatih Spor Kompleksi,FATİH,28.93176,41.02556
196,Spor Tesisi,Spor,025-Yenikapi Bisiklet Dernegi,FATİH,28.940432,40.998968
197,Spor Tesisi,Spor,025-Yenikapi Spor Tesisleri,FATİH,28.940738,41.001423
198,Spor Tesisi,Spor,025-Gaziosmanpasa Barbaros Hayrettin Pasa Spor Kompleksi,GAZİOSMANPAŞA,28.898766,41.076545
199,Spor Tesisi,Spor,025-Bostanci Spor Tesisleri,KADIKÖY,29.08863,40.954044
200,Spor Tesisi,Spor,025-Kartal Hasan Dogan Spor Kompleksi,KARTAL,29.189967,40.892454
201,Spor Tesisi,Spor,025-Cemal Kamaci Spor Tesisleri,KAĞITHANE,28.959739,41.053278
202,Spor Tesisi,Spor,025-Yesilce Spor Kompleksi,KAĞITHANE,29.002046,41.094578
203,Spor Tesisi,Spor,025-Maltepe Spor Tesisleri,MALTEPE,29.111306,40.936238
204,Spor Tesisi,Spor,025-Sancaktepe Taha Akgul Spor Kompleksi,SANCAKTEPE,29.233057,40.978484
205,Spor Tesisi,Spor,025-Sancaktepe Yenidogan Yuzme Havuzu,SANCAKTEPE,29.245335,41.015681
206,Spor Tesisi,Spor,025-Sultanbeyli Golet Spor Tesisleri,SULTANBEYLİ,29.274908,40.949935
207,Spor Tesisi,Spor,025-Silivri Mujdat Gursu Spor Tesisleri,SİLİVRİ,28.259281,41.087402
208,Spor Tesisi,Spor,025-Tuzla Sahil Spor Tesisleri,TUZLA,29.310212,40.812932
209,Spor Tesisi,Spor,025-Dudullu Spor Tesisi,ÜMRANİYE,29.162854,41.012238
210,Spor Tesisi,Spor,025-Haldun Alagas Spor Salonu,ÜMRANİYE,29.104731,41.024958
211,Spor Tesisi,Spor,025-Umraniye Cakmak Yuzme Havuzu,ÜMRANİYE,29.124733,41.021309
212,Spor Tesisi,Spor,025-Umraniye Yesilvadi Spor Tesisi,ÜMRANİYE,29.127969,41.02858
213,Tramvay Istasyonu,Istasyon,METRO T1-BAGCILAR,BAĞCILAR,28.860657,41.03274
214,Tramvay Istasyonu,Istasyon,METRO T1-FINDIKLI,BEYOĞLU,28.989436,41.031482
215,Tramvay Istasyonu,Istasyon,METRO T1-KABATAS,BEYOĞLU,28.992646,41.034326
216,Tramvay Istasyonu,Istasyon,METRO T1-KARAKOY,BEYOĞLU,28.974782,41.022246
217,Tramvay Istasyonu,Istasyon,METRO T1-TOPHANE,BEYOĞLU,28.980616,41.026892
218,Tramvay Istasyonu,Istasyon,METRO T1-AKSARAY,FATİH,28.953944,41.009543
219,Tramvay Istasyonu,Istasyon,METRO T1-CAPA,FATİH,28.933466,41.015149
220,Tramvay Istasyonu,Istasyon,METRO T1-FINDIKZADE,FATİH,28.940269,41.011806
221,Tramvay Istasyonu,Istasyon,METRO T1-HASEKI,FATİH,28.943146,41.010955
222,Tramvay Istasyonu,Istasyon,METRO T1-LALELI,FATİH,28.959765,41.009561
223,Tramvay Istasyonu,Istasyon,METRO T1-SULTANAHMET,FATİH,28.975497,41.0081
224,Tramvay Istasyonu,Istasyon,METRO T1-YUSUFPASA,FATİH,28.946583,41.0101
225,Tramvay Istasyonu,Istasyon,METRO T1-PAZARTEKKE,FATİH,28.92684,41.018475
226,Tramvay Istasyonu,Istasyon,METRO T1-AKINCILAR,GÜNGÖREN,28.871113,41.017393
227,Tramvay Istasyonu,Istasyon,METRO T1-GUNGOREN,GÜNGÖREN,28.877219,41.015526
228,Tramvay Istasyonu,Istasyon,METRO T1-MERTER,GÜNGÖREN,28.88074,41.011789
229,Tramvay Istasyonu,Istasyon,METRO T1-YAVUZSELIM,GÜNGÖREN,28.863745,41.023715
230,Tramvay Istasyonu,Istasyon,METRO T1-CEVIZLIBAG,ZEYTİNBURNU,28.9119,41.016042
231,Tramvay Istasyonu,Istasyon,METRO T1-MITHATPASA,ZEYTİNBURNU,28.902215,41.003535
232,Turistik Mekan,Turistik,028-Cemberlitas Serefiye Sarnici,FATİH,28.972356,41.007284
233,Turistik Mekan,Turistik,028-Eminonu Misir Carsisi,FATİH,28.971066,41.016151
234,Turistik Mekan,Turistik,056-Emirgan Korusu Sari Kosk,SARIYER,29.053605,41.107864
235,Turistik Mekan,Turistik,056-Emirgan Korusu Beyaz Kosk,SARIYER,29.052953,41.109309
236,Yesil Alan,Koru,030-Beykoz Korusu Park ve Bahceler Sefligi,BEYKOZ,29.098574,41.133158
237,Yesil Alan,Koru,030-Beylikduzu Yakuplu Korusu,BEYLİKDÜZÜ,28.668433,41.005364
238,Yesil Alan,Koru,030-Kemerburgaz Kent Ormani,EYÜPSULTAN,28.88337,41.162284
239,Yesil Alan,Koru,030-Gozdagi Korusu,PENDİK,29.252024,40.891037
240,Yesil Alan,Koru,030-Sancaktepe Orman Parki,SANCAKTEPE,29.218902,40.975377
241,Yesil Alan,Koru,030-Emirgan Korusu,SARIYER,29.053011,41.108199
242,Yesil Alan,Koru,030-Fethipasa Korusu,ÜSKÜDAR,29.027314,41.032534
243,Yesil Alan,Park,031-Florya Sosyal Tesisleri Parki,BAKIRKÖY,28.807347,40.960824
244,Yesil Alan,Park,031-Esenler Millet Bahcesi,ESENLER,28.878257,41.06102
245,Yesil Alan,Park,031-Sarachane Anit Parki,FATİH,28.954114,41.015525
246,Yesil Alan,Park,031-Goztepe 60.Yil Parki,KADIKÖY,29.05786,40.969954
247,Yesil Alan,Park,031-Kucukcekmece Golu Sahili,KÜÇÜKÇEKMECE,28.767776,41.001919
248,Yesil Alan,Park,031-Kucukcekmece Selcuklu Parki,KÜÇÜKÇEKMECE,28.796248,41.044773
249,Yesil Alan,Park,031-Bogazici Imar Mudurlugu Bahce,SARIYER,29.026435,41.135165
250,Yesil Alan,ParkBahceler,032-Basaksehir Park ve Bahceler,BAŞAKŞEHİR,28.803974,41.108465
251,Yesil Alan,ParkBahceler,032-Beyoglu Park ve Bahceler,BEYOĞLU,28.993936,41.042018
252,Yesil Alan,ParkBahceler,032-Kumburgaz Park ve Bahceler,BÜYÜKÇEKMECE,28.467882,41.039926
253,Yesil Alan,ParkBahceler,032-Fatih Park ve Bahceler,FATİH,28.923518,41.02191
254,Yesil Alan,ParkBahceler,032-Kucukyali Park ve Bahceler,MALTEPE,29.10161,40.947455
255,Yesil Alan,ParkBahceler,032-Maltepe Park ve Bahceler,MALTEPE,29.12711,40.920351
256,Yesil Alan,ParkBahceler,032-Umraniye Park ve Bahceler,ÜMRANİYE,29.162854,41.012238
257,Diger,AnadoluMeydan,018-Buyukada Meydan,ADALAR,29.12765,40.874414
258,Diger,AnadoluMeydan,018-Beykoz Kanlica Sahil,BEYKOZ,29.065925,41.099739
259,Diger,AnadoluMeydan,018-Kartal Koprusu,KARTAL,29.211692,40.907168
260,Diger,AnadoluMeydan,018-Cekmekoy Yusuf Cebir Merkez Camii,ÇEKMEKÖY,29.228481,41.030559
261,Diger,AnadoluMeydan,018-Umraniye Dudullu Meydan,ÜMRANİYE,29.163593,41.01637
262,Diger,AnadoluMeydan,018-Camlica Tepesi,ÜSKÜDAR,29.0679,41.027407
263,Diger,AnadoluMeydan,018-Uskudar Harem Sahil Yolu,ÜSKÜDAR,29.011697,41.01211
264,Diger,AnadoluMeydan,018-Uskudar Kisikli Meydan,ÜSKÜDAR,29.063421,41.021925
265,Diger,AnadoluMeydan,018-Uskudar Kuleli Sahil,ÜSKÜDAR,29.052767,41.060221
266,Diger,AnadoluMeydan,018-Uskudar Kuzguncuk Sahilyolu,ÜSKÜDAR,29.008546,41.023753
267,Diger,AnadoluMeydan,018-Uskudar Salacak Sahilyolu,ÜSKÜDAR,29.008469,41.024939
268,Diger,AnadoluMeydan,018-Agva Sahil,ŞİLE,29.850241,41.137578
269,Diger,AnadoluMeydan,018-Sile Sahil,ŞİLE,29.607902,41.175735
270,Diger,AvrupaMeydan,018-Arnavutkoy Meydan,ARNAVUTKÖY,28.742378,41.182499
271,Diger,AvrupaMeydan,018-Bakirkoy Meydan,BAKIRKÖY,28.873867,40.980883
272,Diger,AvrupaMeydan,018-Bagcilar Meydan,BAĞCILAR,28.856627,41.034462
273,Diger,AvrupaMeydan,018-Basaksehir Metrokent Meydan,BAŞAKŞEHİR,28.801259,41.107504
274,Diger,AvrupaMeydan,018-Beyoglu Tunel Meydan,BEYOĞLU,28.977381,41.033458
275,Diger,AvrupaMeydan,018-Besiktas Meydan,BEŞİKTAŞ,29.007688,41.04247
276,Diger,AvrupaMeydan,071-M2 Metro Levent Istasyon Girisi,BEŞİKTAŞ,29.014387,41.075955
277,Diger,AvrupaMeydan,018-Buyukcekmece Meydan,BÜYÜKÇEKMECE,28.578171,41.020364
278,Diger,AvrupaMeydan,018-Eyupsultan Meydan,EYÜPSULTAN,28.932804,41.046441
279,Diger,AvrupaMeydan,018-Beyazit Meydan,FATİH,28.966779,41.009197
280,Diger,AvrupaMeydan,018-Capa Hastane Onu Caddesi,FATİH,28.932981,41.015653
281,Diger,AvrupaMeydan,018-Eminonu Divan Yolu,FATİH,28.974665,41.010948
282,Diger,AvrupaMeydan,018-Eminonu Meydan,FATİH,28.970257,41.017572
283,Diger,AvrupaMeydan,018-Sarachane Meydan,FATİH,28.954862,41.014324
284,Diger,AvrupaMeydan,018-Cemberlitas Meydan,FATİH,28.97119,41.008944
285,Diger,AvrupaMeydan,018-Fatih Kumkapi Balik Hali Guvenlik,FATİH,28.962793,41.002499
286,Diger,AvrupaMeydan,018-Fatih Vezneciler Meydan,FATİH,28.959206,41.012147
287,Diger,AvrupaMeydan,071-M2 Metro Halic Unkapani Istasyon Girisi,FATİH,28.963904,41.020371
288,Diger,AvrupaMeydan,018-Kagithane Sanayi Mahallesi,KAĞITHANE,29.005354,41.090741
289,Diger,AvrupaMeydan,018-Kucukcekmece Cennet Yuruyus Yolu,KÜÇÜKÇEKMECE,28.780627,40.988449
290,Diger,AvrupaMeydan,018-Kucukcekmece Mimar Sinan Koprusu,KÜÇÜKÇEKMECE,28.769932,40.988205
291,Diger,AvrupaMeydan,018-Sariyer Yenikoy Sahil,SARIYER,29.06723,41.128563
292,Diger,AvrupaMeydan,070-Sariyer Uskumru Koyu Meydan,SARIYER,29.022427,41.219842
293,Diger,AvrupaMeydan,071-M2 Metro Haciosman Istasyon Girisi,SARIYER,29.030243,41.139893
294,Diger,AvrupaMeydan,071-M2 Metro Itu Istasyon Girisi,SARIYER,29.020786,41.108143
295,Diger,AvrupaMeydan,071-M2 Metro Itu Otobus Duraklari Istasyon Girisi,SARIYER,29.020163,41.10805
296,Diger,AvrupaMeydan,018-Silivri Ugur Mumcu Meydani,SİLİVRİ,28.246197,41.074007
297,Diger,Arge,066-Deneyap Cem Karaca Kultur Merkezi,BAKIRKÖY,28.880827,40.980333
298,Diger,Arge,066-Deneyap Adem Basturk Kultur Merkezi,ESENLER,28.883806,41.040454
299,Diger,Arge,066-Deneyap Pendik Dolayoba,PENDİK,29.237803,41.053157
300,Diger,Arge,066-Deneyap Sariyer Kultur Merkezi,SARIYER,29.051827,41.124858
301,Diger,Arge,Default,İSTANBUL,0,0
302,Diger,Arge,EXTENDED,İSTANBUL,0,0
303,Diger,Arge,ISTANBUL-841,İSTANBUL,0,0
304,Diger,Cadde,017-Atakoy Eski Cinar Sokak,BAKIRKÖY,28.85035,40.98367
305,Diger,Cadde,017-Levent Akcam Caddesi,BEŞİKTAŞ,29.011161,41.085842
306,Diger,Cadde,017-Fatih Fevzi Pasa Caddesi,FATİH,28.951006,41.01654
307,Diger,Cadde,017-Sariyer Istinye Caddesi,SARIYER,29.057043,41.115098
308,Diger,Cadde,017-Umraniye Alemdag Caddesi,ÜMRANİYE,29.091653,41.025299
309,Diger,Garaj,IETT Garaj-Anadolu-In,ATAŞEHİR,29.075875,40.584511
310,Diger,Garaj,IETT Garaj-Anadolu-Out,ATAŞEHİR,29.075875,40.584511
311,Diger,Garaj,IETT Garaj-Edirnekapi-In,FATİH,28.554263,41.014308
312,Diger,Garaj,IETT Garaj-Ikitelli-In,KÜÇÜKÇEKMECE,28.472931,41.0331
313,Diger,Garaj,IETT Garaj-Ayazaga-In,ŞİŞLİ,28.584545,41.063972
314,Diger,Garaj,IETT Garaj-Ayazaga-Out,ŞİŞLİ,28.584545,41.063972
315,Diger,Kamp,029-Florya Cocuk Destek Merkezi,BAKIRKÖY,28.807947,40.96219
316,Diger,Kamp,029-Florya Engelliler Kampi,BAKIRKÖY,28.812574,40.960154
317,Diger,Kamp,029-Sile Engelliler Kampi,ŞİLE,29.471361,41.187223
318,Diger,KongreMerkezi,010-Sisli Istanbul Kongre Merkezi,ŞİŞLİ,28.988284,41.045555
319,Diger,Otel,023-Florya Lem Otel,BAKIRKÖY,28.787062,40.972466
320,Diger,Otel,023-Zeytinburnu Sosyal Tesisleri,ZEYTİNBURNU,28.906268,40.984978
321,Diger,Peron,IETT Peron-Ambarli,AVCILAR,28.420612,40.59018
322,Diger,Peron,IETT Peron-Tuyap,BEYLİKDÜZÜ,28.373089,41.012012
323,Diger,Peron,IETT Peron-Besiktas,BEŞİKTAŞ,29.002778,41.023168
324,Diger,Peron,IETT Peron-Kadikoy,KADIKÖY,29.012772,40.593731
325,Diger,Peron,IETT Peron-SogutluCesme,KADIKÖY,24.021632,40.592927
326,Diger,Peron,IETT Peron-Kartal-In,KARTAL,29.123026,40.542077
327,Diger,Peron,IETT Peron-Kartal-Out,KARTAL,29.123026,40.542077
328,Diger,Peron,IETT Peron-Haciosman,SARIYER,29.015078,41.082386
329,Diger,Peron,IETT Peron-Zincirlikuyu,ŞİŞLİ,29.004982,41.03593
330,Diger,Terminal,026-Esenler Otogar Guvenlik Ofisi,ESENLER,28.893607,41.040117
331,Diger,Terminal,026-Esenler Otogar IBB Genclik Ofisi,ESENLER,28.89344,41.039329
332,Diger,Terminal,026-Esenler Otogar Yonetim Binasi,ESENLER,28.893607,41.040117
333,Diger,Terminal,026-Esenler Otogari Istanbul Gonulluleri Ofisi,ESENLER,28.896005,41.041025
334,Diger,Terminal,026-Alibeykoy Cep Otogar,EYÜPSULTAN,28.944987,41.087819
335,Diger,Universite,063-Medeniyet Universitesi,KADIKÖY,29.063174,40.995377
336,Mobil,Belnet,BELNET-34FM6940,Belnet Otobus,0,0
337,Mobil,Belnet,BELNET-34ZA9385,Belnet Otobus,0,0
338,Mobil,Belnet,BELNET-34ZA9531,Belnet Otobus,0,0
339,Mobil,Belnet,BELNET-34ZA9657,Belnet Otobus,0,0
340,Mobil,Belnet,BELNET-34ZB0070,Belnet Otobus,0,0
341,Mobil,Belnet,BELNET-34ZC6160,Belnet Otobus,0,0
342,Mobil,Belnet,BLNT-34BVF293,Belnet Otobus,0,0
343,Mobil,Belnet,BLNT-34BVF453,Belnet Otobus,0,0
344,Mobil,Belnet,BLNT-34BVF549,Belnet Otobus,0,0
345,Mobil,Belnet,BLNT-34BVF695,Belnet Otobus,0,0
346,Mobil,Belnet,BLNT-34BVF730,Belnet Otobus,0,0
347,Mobil,Belnet,BLNT-34BVF748,Belnet Otobus,0,0
348,Mobil,Belnet,BLNT-34BVF758,Belnet Otobus,0,0
349,Mobil,Belnet,BLNT-34BVF804,Belnet Otobus,0,0
350,Mobil,Belnet,BLNT-34BVF818,Belnet Otobus,0,0
351,Mobil,Belnet,BLNT-34BVF838,Belnet Otobus,0,0
352,Mobil,Belnet,BLNT-34BVF853,Belnet Otobus,0,0
353,Mobil,Belnet,BLNT-34BVF859,Belnet Otobus,0,0
354,Mobil,Belnet,BLNT-34BVG067,Belnet Otobus,0,0
355,Mobil,Belnet,BLNT-34BVG100,Belnet Otobus,0,0
356,Mobil,Belnet,BLNT-34BVY244,Belnet Otobus,0,0
357,Mobil,Belnet,BLNT-34BVY361,Belnet Otobus,0,0
358,Mobil,Belnet,BLNT-34BVY362,Belnet Otobus,0,0
359,Mobil,Belnet,BLNT-34BVY433,Belnet Otobus,0,0
360,Mobil,Belnet,BLNT-34BVY441,Belnet Otobus,0,0
361,Mobil,Belnet,BLNT-34BVY469,Belnet Otobus,0,0
362,Mobil,Belnet,BLNT-34BVY490,Belnet Otobus,0,0
363,Mobil,Belnet,BLNT-34BVY535,Belnet Otobus,0,0
364,Mobil,Belnet,BLNT-34BVY685,Belnet Otobus,0,0
365,Mobil,Belnet,BLNT-34BVY769,Belnet Otobus,0,0
366,Mobil,Belnet,BLNT-34BVY829,Belnet Otobus,0,0
367,Mobil,Belnet,BLNT-34BVY863,Belnet Otobus,0,0
368,Mobil,Belnet,BLNT-34BVY901,Belnet Otobus,0,0
369,Mobil,Belnet,BLNT-34BVY958,Belnet Otobus,0,0
370,Mobil,Belnet,BLNT-34BVY980,Belnet Otobus,0,0
371,Mobil,Belnet,BLNT-34BVZ155,Belnet Otobus,0,0
372,Mobil,Belnet,BLNT-34BVZ253,Belnet Otobus,0,0
373,Mobil,Metrobus,Metrobus-M3002,IETT Metrobus,0,0
374,Mobil,Metrobus,Metrobus-M3007,IETT Metrobus,0,0
375,Mobil,Metrobus,Metrobus-M3022,IETT Metrobus,0,0
376,Mobil,Metrobus,Metrobus-M3040,IETT Metrobus,0,0
377,Mobil,Metrobus,Metrobus-M4619,IETT Metrobus,0,0
378,Mobil,Metrobus,Metrobus-M4675,IETT Metrobus,0,0
379,Mobil,Metrobus,Metrobus-M4903,IETT Metrobus,0,0
380,Mobil,Metrobus,Metrobus-M4907,IETT Metrobus,0,0
381,Mobil,Metrobus,Metrobus-M4908,IETT Metrobus,0,0
382,Mobil,Metrobus,Metrobus-M4910,IETT Metrobus,0,0
383,Mobil,Metrobus,Metrobus-M4914,IETT Metrobus,0,0
384,Mobil,Metrobus,Metrobus-M4915,IETT Metrobus,0,0
385,Mobil,Metrobus,Metrobus-M4926,IETT Metrobus,0,0
386,Mobil,Otobus 4G,IETT-B5164,IETT Otobus,0,0
387,Mobil,Otobus 4G,IETT-B5174,IETT Otobus,0,0
388,Mobil,Otobus 4G,IETT-B5376,IETT Otobus,0,0
389,Mobil,Otobus 4G,IETT-B5377,IETT Otobus,0,0
390,Mobil,Otobus 4G,IETT-B5379,IETT Otobus,0,0
391,Mobil,Otobus 4G,IETT-B5380,IETT Otobus,0,0
392,Mobil,Otobus 4G,IETT-B5381,IETT Otobus,0,0
393,Mobil,Otobus 4G,IETT-O2185,IETT Otobus,0,0
394,Mobil,Otobus 4G,IETT-T1007,IETT Otobus,0,0
395,Mobil,Otobus 4G,IETT-T1016,IETT Otobus,0,0
396,Mobil,Otobus 4G,IETT-T1018,IETT Otobus,0,0
397,Mobil,Otobus 4G,IETT-T1022,IETT Otobus,0,0
398,Mobil,Otobus 4G,IETT-T1023,IETT Otobus,0,0
399,Mobil,Otobus 4G,IETT-T1024,IETT Otobus,0,0
400,Mobil,Otobus 4G,IETT-T1025,IETT Otobus,0,0
401,Mobil,Otobus 4G,IETT-T1026,IETT Otobus,0,0
402,Mobil,Otobus 4G,IETT-T1031,IETT Otobus,0,0
403,Mobil,Otobus 4G,IETT-T1034,IETT Otobus,0,0
404,Mobil,Otobus 4G,IETT-T1035,IETT Otobus,0,0
405,Mobil,Otobus 4G,IETT-T1039,IETT Otobus,0,0
406,Mobil,Otobus 4G,IETT-T1043,IETT Otobus,0,0
407,Mobil,Otobus 4G,IETT-T1044,IETT Otobus,0,0
408,Mobil,Otobus 4G,IETT-T1047,IETT Otobus,0,0
409,Mobil,Otobus 4G,IETT-T1049,IETT Otobus,0,0
410,Mobil,Otobus 4G,IETT-T1050,IETT Otobus,0,0
411,Mobil,Otobus 4G,IETT-T1051,IETT Otobus,0,0
412,Mobil,Otobus 4G,IETT-T1054,IETT Otobus,0,0
413,Mobil,Otobus 4G,IETT-T1056,IETT Otobus,0,0
414,Mobil,Otobus 4G,IETT-T1057,IETT Otobus,0,0
415,Mobil,Otobus 4G,IETT-T1059,IETT Otobus,0,0
416,Mobil,Otobus 4G,IETT-T1060,IETT Otobus,0,0
417,Mobil,Otobus 4G,IETT-T1062,IETT Otobus,0,0
418,Mobil,Otobus 4G,IETT-T1063,IETT Otobus,0,0
419,Mobil,Otobus 4G,IETT-T1064,IETT Otobus,0,0
420,Mobil,Otobus 4G,IETT-T1065,IETT Otobus,0,0
421,Mobil,Otobus 4G,IETT-T1066,IETT Otobus,0,0
422,Mobil,Otobus 4G,IETT-T1067,IETT Otobus,0,0
423,Mobil,Otobus 4G,IETT-T1068,IETT Otobus,0,0
424,Mobil,Otobus 4G,IETT-T1069,IETT Otobus,0,0
425,Mobil,Otobus 4G,IETT-T1071,IETT Otobus,0,0
426,Mobil,Otobus 4G,IETT-T1072,IETT Otobus,0,0
427,Mobil,Otobus 4G,IETT-T1073,IETT Otobus,0,0
428,Mobil,Otobus 4G,IETT-T1074,IETT Otobus,0,0
429,Mobil,Otobus 4G,IETT-T1075,IETT Otobus,0,0
430,Mobil,Otobus 4G,IETT-T1076,IETT Otobus,0,0
431,Mobil,Otobus 4G,IETT-T1079,IETT Otobus,0,0
432,Mobil,Otobus 4G,IETT-T1082,IETT Otobus,0,0
433,Mobil,Otobus 4G,IETT-T1086,IETT Otobus,0,0
434,Mobil,Otobus 4G,IETT-T1087,IETT Otobus,0,0
435,Mobil,Otobus 4G,IETT-T1089,IETT Otobus,0,0
436,Mobil,Otobus 4G,IETT-T1091,IETT Otobus,0,0
437,Mobil,Otobus 4G,IETT-T1093,IETT Otobus,0,0
438,Mobil,Otobus 4G,IETT-T1108,IETT Otobus,0,0
439,Mobil,Otobus 4G,ISTANBUL-840,İSTANBUL,0,0
440,Mobil,Otobus 4G,ISTANBUL-842,İSTANBUL,0,0
441,Mobil,Otobus 4G,ISTANBUL-843,İSTANBUL,0,0
442,Mobil,Otobus 4G,ISTANBUL-844,İSTANBUL,0,0
443,Mobil,Otobus 4G,ISTANBUL-845,İSTANBUL,0,0
444,Hizmet Binasi,Bina,001-IBB Yenibosna BeyazMasa,BAHÇELİEVLER,28.81876,41.012851
445,Hizmet Binasi,Bina,001-Yenibosna Kadin Kordinasyon,BAHÇELİEVLER,28.830424,40.989982
446,Hizmet Binasi,Bina,001-Bayrampasa Kentsel Donusum,BAYRAMPAŞA,28.903428,41.045784
447,Hizmet Binasi,Bina,ISADEM-Bagcilar,BAĞCILAR,28.857501,41.0251
448,Hizmet Binasi,Bina,ISBAK-Piyalepasa Tunel Yonetim,BEYOĞLU,28.968634,41.054595
449,Hizmet Binasi,Bina,059-Buyukcekmece Mezarliklar,BÜYÜKÇEKMECE,28.646075,41.014139
450,Hizmet Binasi,Bina,001-Edirnekapi Ilaclama,EYÜPSULTAN,28.927331,41.029579
451,Hizmet Binasi,Bina,001-Edirnekapi Ruhsat Denetim,EYÜPSULTAN,28.929505,41.027026
452,Hizmet Binasi,Bina,ISTTELKOM-Edirnekapi Telsiz Birimi,EYÜPSULTAN,28.927548,41.030693
453,Hizmet Binasi,Bina,060-Edirnekapi Trafik,EYÜPSULTAN,28.928432,41.030349
454,Hizmet Binasi,Bina,ISADEM-Fatih,FATİH,28.939961,41.019943
455,Hizmet Binasi,Bina,MEDYA A.S-Genel Mudurluk,FATİH,28.957105,41.016189
456,Hizmet Binasi,Bina,059-Besyuzevler Mezarliklar,GAZİOSMANPAŞA,28.883214,41.074559
457,Hizmet Binasi,Bina,ISADEM-Gungoren,GÜNGÖREN,28.878635,41.021308
458,Hizmet Binasi,Bina,059-Kartal Soganlik Mezarliklar,KARTAL,29.21064,40.918029
459,Hizmet Binasi,Bina,060-Kartal Trafik,KARTAL,29.187576,40.911826
460,Hizmet Binasi,Bina,061-Kartal Yol Bakim,KARTAL,29.186078,40.912097
461,Hizmet Binasi,Bina,ISBAK-Kagithane Tunel Santiyesi,KAĞITHANE,28.955722,41.065794
462,Hizmet Binasi,Bina,ISKI-Laboratuvar Binasi,KAĞITHANE,28.967527,41.086539
463,Hizmet Binasi,Bina,001-Kucukcekmece TEDES Merkezi,KÜÇÜKÇEKMECE,28.800275,41.000453
464,Hizmet Binasi,Bina,061-Maltepe Yol Bakim,MALTEPE,29.155126,40.934629
465,Hizmet Binasi,Bina,061-Sariyer Yol Bakim,SARIYER,29.025047,41.155494
466,Hizmet Binasi,Bina,IHE-Genel Mudurluk,SULTANGAZİ,28.880016,41.107693
467,Hizmet Binasi,Bina,ISADEM-Sultangazi,SULTANGAZİ,28.865871,41.108496
468,Hizmet Binasi,Bina,059-Silivri Mezarliklar,SİLİVRİ,28.256463,41.10142
469,Hizmet Binasi,Bina,059-Catalca Mezarliklar,ÇATALCA,28.449979,41.148388
470,Hizmet Binasi,Bina,061-Catalca Yol Bakim,ÇATALCA,28.453384,41.22773
471,Hizmet Binasi,Bina,001-Uskudar Evde Saglik Hizmetleri,ÜSKÜDAR,29.025121,41.014092
472,Hizmet Binasi,Bina,ISBAK-Selimiye Santiyesi,ÜSKÜDAR,29.020501,41.008659
473,Hizmet Binasi,Bina,059-Zincirlikuyu Mezarliklar Daire Baskanligi,ŞİŞLİ,29.015549,41.072546
474,Hizmet Binasi,Engelliler,003-Beyoglu Engelliler Mudurlugu,BEYOĞLU,28.978849,41.027168
475,Hizmet Binasi,Hal,004-Atasehir Meyve Sebze Hali,ATAŞEHİR,29.103195,40.979795
476,Hizmet Binasi,Hal,004-Bayrampasa Meyve Sebze Hali,BAYRAMPAŞA,28.886832,41.048746
477,Hizmet Binasi,Itfaiye,007-Avcilar Itfaiye,AVCILAR,28.712969,40.993533
478,Hizmet Binasi,Itfaiye,007-Bakirkoy Itfaiye,BAKIRKÖY,28.881608,40.987576
479,Hizmet Binasi,Itfaiye,007-Bagcilar Turgut Reis Itfaiye,BAĞCILAR,28.867145,41.064624
480,Hizmet Binasi,Itfaiye,007-Basaksehir Itfaiye,BAŞAKŞEHİR,28.800754,41.104023
481,Hizmet Binasi,Itfaiye,007-Sarachane Itfaiye Baskanligi,FATİH,28.953559,41.016067
482,Hizmet Binasi,Itfaiye,007-Gaziosmanpasa Itfaiye,GAZİOSMANPAŞA,28.893542,41.079145
483,Hizmet Binasi,Itfaiye,007-Gungoren Itfaiye,GÜNGÖREN,28.888523,41.016872
484,Hizmet Binasi,Itfaiye,007-Tuzla Itfaiye,TUZLA,29.293924,40.857485
485,Hizmet Binasi,Itfaiye,007-Anadolu Yakasi Itfaiye Mudurlugu,ÜSKÜDAR,29.0116,41.019857
486,Hizmet Binasi,Itfaiye,007-Agva Itfaiye,ŞİLE,29.856279,41.137286
487,Hizmet Binasi,PDM,PDM-Bayrampasa,BAYRAMPAŞA,28.909631,41.040002
488,Hizmet Binasi,PDM,PDM-Kartal,KARTAL,29.161383,40.905927
489,Hizmet Binasi,PTM,PDM-Atasehir,ATAŞEHİR,29.084831,40.989517
490,Hizmet Binasi,PTM,PDM-Sirinevler,BAHÇELİEVLER,28.848458,40.992708
491,Hizmet Binasi,PTM,PDM-Tuzla,TUZLA,29.328323,40.869157
492,Hizmet Binasi,Kres,068-Arnavutkoy Yuvamiz Istanbul,ARNAVUTKÖY,28.722242,41.196518
493,Hizmet Binasi,Kres,068-Avcilar Yuvamiz Istanbul,AVCILAR,28.70651,41.032128
494,Hizmet Binasi,Kres,068-Bahcelievler Karadeniz Mahallesi Yuvamiz Istanbul,BAHÇELİEVLER,28.843919,41.00718
495,Hizmet Binasi,Kres,068-Bahcelievler Zafer Mahallesi Yuvamiz Istanbul,BAHÇELİEVLER,28.835238,41.003374
496,Hizmet Binasi,Kres,068-Yenibosna Yuvamiz Istanbul,BAHÇELİEVLER,28.830691,40.989899
497,Hizmet Binasi,Kres,068-Basaksehir Yuvamiz Istanbul,BAŞAKŞEHİR,28.809977,41.086826
498,Hizmet Binasi,Kres,068-Kayasehir Yuvamiz Istanbul,BAŞAKŞEHİR,28.764007,41.100604
499,Hizmet Binasi,Kres,068-Beylikduzu Yuvamiz Istanbul,BEYLİKDÜZÜ,28.646562,40.97689
500,Hizmet Binasi,Kres,068-Beyoglu Ornektepe Yuvamiz Istanbul,BEYOĞLU,28.951475,41.058333
501,Hizmet Binasi,Kres,068-Esenyurt Yuvamiz Istanbul,ESENYURT,28.635608,41.067566
502,Hizmet Binasi,Kres,068-Gaziosmanpasa Barbaros Hayrettinpasa Yuvamiz Istanbul,GAZİOSMANPAŞA,28.922581,41.092457
503,Hizmet Binasi,Kres,068-Gungoren Yuvamiz Istanbul,GÜNGÖREN,28.876773,41.028627
504,Hizmet Binasi,Kres,068-Kartal Yuvamiz Istanbul,KARTAL,29.192541,40.899331
505,Hizmet Binasi,Kres,068-Kucukcekmece Yuvamiz Istanbul,KÜÇÜKÇEKMECE,28.782957,41.021926
506,Hizmet Binasi,Kres,068-Pendik Suluntepe Yuvamiz Istanbul,PENDİK,29.276456,40.9069
507,Hizmet Binasi,Kres,068-Pendik Yuvamiz Istanbul,PENDİK,29.260852,40.89157
508,Hizmet Binasi,Kres,068-Sancaktepe Yuvamiz Istanbul,SANCAKTEPE,29.245345,41.016063
509,Hizmet Binasi,Kres,068-Sultanbeyli Yuvamiz Istanbul,SULTANBEYLİ,29.255648,40.991018
510,Hizmet Binasi,Kres,068-Sultangazi Yuvamiz Istanbul,SULTANGAZİ,28.875391,41.105497
511,Hizmet Binasi,Kres,068-Silivri Alibey Yuvamiz Istanbul,SİLİVRİ,28.257453,41.092369
512,Hizmet Binasi,Kres,068-Silivri Selimpasa Yuvamiz Istanbul,SİLİVRİ,28.385422,41.054046
513,Hizmet Binasi,Zabita,009-Bayrampasa Hal Zabita,BAYRAMPAŞA,28.887552,41.05075
514,Hizmet Binasi,Zabita,009-Beylikduzu Zabita,BEYLİKDÜZÜ,28.645557,41.01478
515,Hizmet Binasi,Zabita,009-Kartal Zabita Tedbir,KARTAL,29.188153,40.912237
516,Ismek,Ismek,ISMEK-Bakirkoy,BAKIRKÖY,28.877398,40.979393
517,Kultur Merkezi,KulturMerkezi,012-Cem Karaca Kultur Merkezi,BAKIRKÖY,28.880556,40.980471
518,Kultur Merkezi,KulturMerkezi,012-Basaksehir Kultur Merkezi,BAŞAKŞEHİR,28.785539,41.104782
519,Kultur Merkezi,KulturMerkezi,012-Esenler Kadir Topbas Kultur Merkezi,ESENLER,28.882518,41.035633
520,Kultur Merkezi,KulturMerkezi,012-Alibeykoy IBB Orkestralar Sube Mudurlugu,EYÜPSULTAN,28.926066,41.083861
521,Kultur Merkezi,KulturMerkezi,012-Avrasya Gosteri ve Sanat Merkezi,FATİH,28.943655,40.998944
522,Kultur Merkezi,KulturMerkezi,013-Gaziosmanpasa Sehir Sahnesi,GAZİOSMANPAŞA,28.915911,41.057453
523,Kultur Merkezi,KulturMerkezi,012-Erdem Beyazit Kultur Merkezi,GÜNGÖREN,28.876948,41.028597
524,Kultur Merkezi,KulturMerkezi,012-15 Temmuz Sehitleri Konferans Salonu,KADIKÖY,29.054201,40.999001
525,Kultur Merkezi,KulturMerkezi,012-Bulent Ecevit Kultur Merkezi,KARTAL,29.196328,40.886349
526,Kultur Merkezi,KulturMerkezi,013-Yakacik Sanatci Yasam Evi,KARTAL,29.241427,40.90507
527,Kultur Merkezi,KulturMerkezi,012-Yahya Kemal Beyatli Kultur Merkezi,KÜÇÜKÇEKMECE,28.80303,41.030465
528,Kultur Merkezi,KulturMerkezi,013-Ikitelli Sehir Tiyatrolari Kostum Depo,KÜÇÜKÇEKMECE,28.803314,41.071511
529,Kultur Merkezi,KulturMerkezi,012-Sancaktepe Kadir Topbas Kultur Merkezi,SANCAKTEPE,29.244969,41.014755
530,Kultur Merkezi,KulturMerkezi,012-Sancaktepe Eyup Sultan Kultur Merkezi,SANCAKTEPE,29.231847,40.978859
531,Kultur Merkezi,KulturMerkezi,012-Sariyer Kultur Merkezi,SARIYER,29.052068,41.124414
532,Kultur Merkezi,KulturMerkezi,012-Necmettin Erbakan Kultur Merkezi,SULTANBEYLİ,29.258629,40.970989
533,Kultur Merkezi,KulturMerkezi,KULTUR AS-Genel Mudurluk,ZEYTİNBURNU,28.921655,41.022063
534,Kultur Merkezi,KulturMerkezi,013-Umraniye Sehir Tiyatrolari,ÜMRANİYE,29.105037,41.025556
535,Kultur Merkezi,KulturMerkezi,012-Sehit Kaymakam Muhammed Fatih Safiturk Kultur Merkezi,ÜMRANİYE,29.105734,41.017041
536,Kultur Merkezi,KulturMerkezi,013-Kerem Yilmazer Sahnesi,ÜSKÜDAR,29.023764,41.017019
537,Kultur Merkezi,KulturMerkezi,012-Sile Kultur Merkezi,ŞİLE,29.615414,41.17239
538,Kultur Merkezi,KulturMerkezi,011-Sisli CRR Konser Salonu,ŞİŞLİ,28.990258,41.048207
539,Kultur Merkezi,KulturMerkezi,011-Harbiye Cemil Topuzlu Acik Hava Sahnesi,ŞİŞLİ,28.990026,41.046045
540,Kutuphane,Kutuphane,014-Rasim Ozden Oren Kutuphanesi,BAŞAKŞEHİR,28.785541,41.104436
541,Kutuphane,Kutuphane,014-Haci Bektasi Veli Kutuphanesi,SULTANGAZİ,28.876527,41.098069
542,Otobus Duragi,Durak,038-Beylikduzu Otobus Duragi,BEYLİKDÜZÜ,28.657735,41.008841
543,Otobus Duragi,Durak,038-Bostanci Koprusu Otobus Duragi,KADIKÖY,29.1044,40.96544
544,Otobus Duragi,Durak,038-Zeytinburnu Otobus Duragi,ZEYTİNBURNU,28.890811,41.002993
545,Sosyal Tesis,Sosyal,024-Deniz Koskleri Sosyal Tesisleri,AVCILAR,28.74292,40.973972
546,Sosyal Tesis,Sosyal,024-Cihangir Sosyal Tesisleri,BEYOĞLU,28.982257,41.028379
547,Sosyal Tesis,Sosyal,024-Kucukcekmece Sosyal Tesisleri,KÜÇÜKÇEKMECE,28.765303,40.9999
548,Sosyal Tesis,Sosyal,024-Safa Tepesi Sosyal Tesisleri,SANCAKTEPE,29.254914,41.013775
549,Sosyal Tesis,Sosyal,024-Cirpici 1453 Sosyal Tesisleri,ZEYTİNBURNU,28.891461,41.000342
550,Sosyal Tesis,Sosyal,024-Camlica Sosyal Tesisleri,ÜSKÜDAR,29.069071,41.027853
551,Sosyal Tesis,Sosyal,024-Fethipasa Sosyal Tesisleri,ÜSKÜDAR,29.026143,41.032534
552,Spor Tesisi,Spor,025-Bahcelievler Spor Kompleksi,BAHÇELİEVLER,28.880413,41.002171
553,Spor Tesisi,Spor,025-Atakoy Sinan Erdem Spor Salonu,BAKIRKÖY,28.853506,40.988493
554,Spor Tesisi,Spor,025-Hidayet Turkoglu Spor Tesisi,BAYRAMPAŞA,28.884133,41.065358
555,Spor Tesisi,Spor,025-Beykoz Spor Kompleksi,BEYKOZ,29.100534,41.125255
556,Spor Tesisi,Spor,025-Edirnekapi Spor Tesisi,EYÜPSULTAN,28.936885,41.032583
557,Spor Tesisi,Spor,025-Halkali Yuzme Havuzu,KÜÇÜKÇEKMECE,28.799341,41.044949
558,Spor Tesisi,Spor,025-Tarabya Metin Oktay Spor Tesisi,SARIYER,29.049423,41.128394
559,Spor Tesisi,Spor,025-Cebeci Spor Kompleksi,SULTANGAZİ,28.876316,41.107116
560,Spor Tesisi,Spor,025-Hamza Yerlikaya Spor Kompleksi,SULTANGAZİ,28.870156,41.08674
561,Spor Tesisi,Spor,025-Cirpici Spor Tesisi,ZEYTİNBURNU,28.891048,40.999572
562,Spor Tesisi,Spor,025-Sile Spor Kompleksi,ŞİLE,29.588511,41.155046
563,Turistik Mekan,Turistik,015-Asiyan Muzesi,BEŞİKTAŞ,29.053861,41.082512
564,Turistik Mekan,Turistik,056-Pierre Loti Tepesi,EYÜPSULTAN,28.932578,41.053734
565,Turistik Mekan,Turistik,056-BELTUR Miniaturk Kafe,SARIYER,28.948646,41.058578
566,Turistik Mekan,Turistik,015-Sisli Ataturk Muzesi,ŞİŞLİ,28.987136,41.056428
567,Yesil Alan,Koru,030-Beykoz Hidiv Kasri Korusu,BEYKOZ,29.073978,41.104805
568,Yesil Alan,Koru,030-Yildiz Korusu,BEŞİKTAŞ,29.015456,41.049054
569,Yesil Alan,Park,031-Bakirkoy Baruthane Millet Bahcesi,BAKIRKÖY,28.858946,40.975509
570,Yesil Alan,Park,031-Gurpinar Piri Reis Parki,BEYLİKDÜZÜ,28.59777,40.992707
571,Yesil Alan,Park,031-Karakoy Sahil Parki,BEYOĞLU,28.969007,41.023967
572,Yesil Alan,Park,031-Fatih Kumkapi Sahil Parki,FATİH,28.925951,40.990482
573,Yesil Alan,Park,031-Fatih Uluslararasi Baris Parki,FATİH,28.919307,40.988982
574,Yesil Alan,Park,031-Yenikapi Sehir Parki,FATİH,28.964481,41.002676
575,Yesil Alan,Park,031-Cadde Bostan Dalyan Parki,KADIKÖY,29.053326,40.967629
576,Yesil Alan,Park,031-Kartal Cecenistan Parki,KARTAL,29.187151,40.888024
577,Yesil Alan,Park,031-Halkali Camlik Parki,KÜÇÜKÇEKMECE,28.790541,41.031728
578,Yesil Alan,Park,031-Halkali Nurettin Sen Parki,KÜÇÜKÇEKMECE,28.783597,41.035524
579,Yesil Alan,Park,031-Kucukcekmece Bezirganbahce Parki,KÜÇÜKÇEKMECE,28.77561,41.029331
580,Yesil Alan,Park,031-Kucukcekmece Tastepe Ataturk Parki,KÜÇÜKÇEKMECE,28.772177,41.022156
581,Yesil Alan,Park,031-Maltepe Orhangazi Sehir Parki,MALTEPE,29.121198,40.924531
582,Yesil Alan,Park,031-Maltepe Pendik Sahil Seridi,MALTEPE,29.256022,40.868536
583,Yesil Alan,Park,031-Kurtkoy Dedepasa Parki,PENDİK,29.311377,40.938979
584,Yesil Alan,Park,031-Pendik Meydan Parki,PENDİK,29.23499,40.875823
585,Yesil Alan,Park,031-Safa Tepesi Park ve Bahceler Parki,SANCAKTEPE,29.254897,41.012137
586,Yesil Alan,Park,031-Sancaktepe Trafik Egitim Parki,SANCAKTEPE,29.237764,40.995229
587,Yesil Alan,Park,031-Caglayan Abide-i Hurriyet Parki,SARIYER,28.981998,41.068341
588,Yesil Alan,Park,031-Sariyer Haciosman Ataturk Kent Ormani,SARIYER,29.03309,41.134178
589,Yesil Alan,Park,031-Topkapi Trafik Egitim Parki,ZEYTİNBURNU,28.922887,41.021059
590,Yesil Alan,Park,031-Umraniye Millet Bahcesi,ÜMRANİYE,29.118248,41.040737
591,Yesil Alan,Park,031-Uskudar Cengelkoy Havuzbasi Parki,ÜSKÜDAR,29.05374,41.046596
592,Yesil Alan,ParkBahceler,032-Yildiz Korusu Park ve Bahceler,BEŞİKTAŞ,29.015585,41.046605
593,Yesil Alan,ParkBahceler,032-Eminonu Park ve Bahceler,FATİH,28.98077,41.014188
594,Yesil Alan,ParkBahceler,032-Kagithane Park ve Bahceler,KAĞITHANE,28.955561,41.065596
595,Yesil Alan,ParkBahceler,032-Safa Tepesi Park ve Bahceler,SANCAKTEPE,29.254707,41.012189
596,Yesil Alan,ParkBahceler,032-Cirpici Park ve Bahceler,ZEYTİNBURNU,28.887425,41.001016
597,Diger,AnadoluMeydan,018-Kartal Meydan,KARTAL,29.189346,40.88982
598,Diger,AnadoluMeydan,018-Pendik Marmara Hastane Onu,PENDİK,29.261779,40.886947
599,Diger,AnadoluMeydan,018-Sultanbeyli Meydan,SULTANBEYLİ,29.266654,40.96714
600,Diger,AnadoluMeydan,018-Cekmekoy Meydan,ÇEKMEKÖY,29.190271,41.014079
601,Diger,AnadoluMeydan,018-Uskudar Meydan,ÜSKÜDAR,29.014881,41.027275
602,Diger,AvrupaMeydan,018-Florya Sahil,BAKIRKÖY,28.80068,40.963136
603,Diger,AvrupaMeydan,018-Taksim Meydan,BEYOĞLU,28.985666,41.037058
604,Diger,AvrupaMeydan,018-Edirnekapi Sehitlik,EYÜPSULTAN,28.92817,41.033684
605,Diger,AvrupaMeydan,018-Aksaray Meydan,FATİH,28.949292,41.011242
606,Diger,AvrupaMeydan,018-Gaziosmanpasa Meydan,GAZİOSMANPAŞA,28.913608,41.058146
607,Diger,AvrupaMeydan,018-Kucukcekmece Etkinlik Alani,KÜÇÜKÇEKMECE,28.793358,41.008056
608,Diger,AvrupaMeydan,018-Kucukcekmece Meydan,KÜÇÜKÇEKMECE,28.77166,40.990604
609,Diger,AvrupaMeydan,018-Mecidiyekoy Meydan,ŞİŞLİ,28.992465,41.064094
610,Diger,Arge,066-Deneyap Ali Emiri Kultur Merkezi,FATİH,28.939853,41.019603
611,Diger,Arge,066-Deneyap Erdem Beyazit Kultur Merkezi,GÜNGÖREN,28.877215,41.028642
612,Diger,Arge,066-Deneyap Idris Gulluce Kultur Merkezi,TUZLA,29.302613,40.849826
613,Diger,Cadde,017-Sirinevler Mahmutbey Caddesi,BAHÇELİEVLER,28.842888,40.994098
614,Diger,Cadde,017-Levent Akasyali Sokak,BEŞİKTAŞ,29.009866,41.087364
615,Diger,Cadde,017-Zeytinburnu 29.Sokak,ZEYTİNBURNU,28.896656,40.985878
616,Diger,Garaj,IETT Garaj-Edirnekapi-Cam,FATİH,28.554263,41.014308
617,Diger,Garaj,IETT Garaj-Hasanpasa-In,KADIKÖY,29.023146,40.594177
618,Diger,Garaj,IETT Garaj-Hasanpasa-Out,KADIKÖY,29.023146,40.594177
619,Diger,Garaj,IETT Garaj-Kagithane-Out,KAĞITHANE,28.573054,41.03566
620,Diger,Garaj,IETT Garaj-Ikitelli-Out,KÜÇÜKÇEKMECE,28.472931,41.0331
621,Diger,Kamp,029-Marmaracik Yaz Kampi,SARIYER,29.090822,41.243239
622,Diger,Otel,023-Florya Gunes Otel,BAKIRKÖY,28.788649,40.971917
623,Diger,Peron,IETT Peron-Yenibosna-Out,BAHÇELİEVLER,28.501286,40.595614
624,Diger,Peron,IETT Peron-Kayabasi,BAŞAKŞEHİR,28.445424,41.064146
625,Diger,Peron,IETT Peron-Levent,BEŞİKTAŞ,29.003277,41.052214
626,Diger,Peron,IETT Peron-Eminonu-Mesh,FATİH,28.581074,41.010892
627,Diger,Peron,IETT Peron-Pendik,PENDİK,29.143841,40.522655
628,Diger,Peron,IETT Peron-Yenidogan_Out,SANCAKTEPE,29.151563,41.001865
629,Diger,Peron,IETT Peron-Sultanbeyli,SULTANBEYLİ,29.175156,40.561725
630,Diger,Peron,IETT Peron-Uskudar,ÜSKÜDAR,29.074823,41.012278
631,Diger,Peron,IETT Peron-Mecidiyekoy-Out,ŞİŞLİ,28.59289,41.035982
632,Diger,Universite,063-Istanbul Universitesi Avcilar Kampusu,AVCILAR,28.727285,40.98714
633,Diger,Universite,063-Istanbul Universitesi Saglik Bilimleri,BAKIRKÖY,28.863824,40.986566
634,Diger,Universite,063-Medipol Universitesi,BEYKOZ,29.093024,41.09064
635,Mobil,Belnet,BELNET-34ZB0081,Belnet Otobus,0,0
636,Mobil,Belnet,BELNET-34ZC6117,Belnet Otobus,0,0
637,Mobil,Belnet,BELNET-34ZC6155,Belnet Otobus,0,0
638,Mobil,Belnet,BELNET-34ZC6157,Belnet Otobus,0,0
639,Mobil,Metrobus,Metrobus-M3001,IETT Metrobus,0,0
640,Mobil,Metrobus,Metrobus-M3003,IETT Metrobus,0,0
641,Mobil,Metrobus,Metrobus-M3004,IETT Metrobus,0,0
642,Mobil,Metrobus,Metrobus-M3005,IETT Metrobus,0,0
643,Mobil,Metrobus,Metrobus-M3006,IETT Metrobus,0,0
644,Mobil,Metrobus,Metrobus-M3008,IETT Metrobus,0,0
645,Mobil,Metrobus,Metrobus-M3009,IETT Metrobus,0,0
646,Mobil,Metrobus,Metrobus-M3010,IETT Metrobus,0,0
647,Mobil,Metrobus,Metrobus-M3011,IETT Metrobus,0,0
648,Mobil,Metrobus,Metrobus-M3012,IETT Metrobus,0,0
649,Mobil,Metrobus,Metrobus-M3013,IETT Metrobus,0,0
650,Mobil,Metrobus,Metrobus-M3014,IETT Metrobus,0,0
651,Mobil,Metrobus,Metrobus-M3015,IETT Metrobus,0,0
652,Mobil,Metrobus,Metrobus-M3016,IETT Metrobus,0,0
653,Mobil,Metrobus,Metrobus-M3017,IETT Metrobus,0,0
654,Mobil,Metrobus,Metrobus-M3018,IETT Metrobus,0,0
655,Mobil,Metrobus,Metrobus-M3019,IETT Metrobus,0,0
656,Mobil,Metrobus,Metrobus-M3020,IETT Metrobus,0,0
657,Mobil,Metrobus,Metrobus-M3021,IETT Metrobus,0,0
658,Mobil,Metrobus,Metrobus-M3023,IETT Metrobus,0,0
659,Mobil,Metrobus,Metrobus-M3024,IETT Metrobus,0,0
660,Mobil,Metrobus,Metrobus-M3025,IETT Metrobus,0,0
661,Mobil,Metrobus,Metrobus-M3026,IETT Metrobus,0,0
662,Mobil,Metrobus,Metrobus-M3027,IETT Metrobus,0,0
663,Mobil,Metrobus,Metrobus-M3028,IETT Metrobus,0,0
664,Mobil,Metrobus,Metrobus-M3029,IETT Metrobus,0,0
665,Mobil,Metrobus,Metrobus-M3030,IETT Metrobus,0,0
666,Mobil,Metrobus,Metrobus-M3031,IETT Metrobus,0,0
667,Mobil,Metrobus,Metrobus-M3033,IETT Metrobus,0,0
668,Mobil,Metrobus,Metrobus-M3034,IETT Metrobus,0,0
669,Mobil,Metrobus,Metrobus-M3035,IETT Metrobus,0,0
670,Mobil,Metrobus,Metrobus-M3036,IETT Metrobus,0,0
671,Mobil,Metrobus,Metrobus-M3037,IETT Metrobus,0,0
672,Mobil,Metrobus,Metrobus-M3038,IETT Metrobus,0,0
673,Mobil,Metrobus,Metrobus-M3039,IETT Metrobus,0,0
674,Mobil,Metrobus,Metrobus-M3041,IETT Metrobus,0,0
675,Mobil,Metrobus,Metrobus-M3042,IETT Metrobus,0,0
676,Mobil,Metrobus,Metrobus-M3043,IETT Metrobus,0,0
677,Mobil,Metrobus,Metrobus-M3044,IETT Metrobus,0,0
678,Mobil,Metrobus,Metrobus-M3045,IETT Metrobus,0,0
679,Mobil,Metrobus,Metrobus-M3046,IETT Metrobus,0,0
680,Mobil,Metrobus,Metrobus-M3047,IETT Metrobus,0,0
681,Mobil,Metrobus,Metrobus-M3048,IETT Metrobus,0,0
682,Mobil,Metrobus,Metrobus-M3049,IETT Metrobus,0,0
683,Mobil,Metrobus,Metrobus-M3050,IETT Metrobus,0,0
684,Mobil,Metrobus,Metrobus-M3051,IETT Metrobus,0,0
685,Mobil,Metrobus,Metrobus-M3052,IETT Metrobus,0,0
686,Mobil,Metrobus,Metrobus-M3053,IETT Metrobus,0,0
687,Mobil,Metrobus,Metrobus-M3054,IETT Metrobus,0,0
688,Mobil,Metrobus,Metrobus-M3055,IETT Metrobus,0,0
689,Mobil,Metrobus,Metrobus-M3056,IETT Metrobus,0,0
690,Mobil,Metrobus,Metrobus-M3057,IETT Metrobus,0,0
691,Mobil,Metrobus,Metrobus-M3058,IETT Metrobus,0,0
692,Mobil,Metrobus,Metrobus-M3059,IETT Metrobus,0,0
693,Mobil,Metrobus,Metrobus-M3060,IETT Metrobus,0,0
694,Mobil,Metrobus,Metrobus-M3061,IETT Metrobus,0,0
695,Mobil,Metrobus,Metrobus-M3062,IETT Metrobus,0,0
696,Mobil,Metrobus,Metrobus-M3063,IETT Metrobus,0,0
697,Mobil,Metrobus,Metrobus-M3064,IETT Metrobus,0,0
698,Mobil,Metrobus,Metrobus-M3065,IETT Metrobus,0,0
699,Mobil,Metrobus,Metrobus-M3066,IETT Metrobus,0,0
700,Mobil,Metrobus,Metrobus-M3067,IETT Metrobus,0,0
701,Mobil,Metrobus,Metrobus-M3068,IETT Metrobus,0,0
702,Mobil,Metrobus,Metrobus-M3069,IETT Metrobus,0,0
703,Mobil,Metrobus,Metrobus-M3070,IETT Metrobus,0,0
704,Mobil,Metrobus,Metrobus-M3071,IETT Metrobus,0,0
705,Mobil,Metrobus,Metrobus-M3072,IETT Metrobus,0,0
706,Mobil,Metrobus,Metrobus-M3073,IETT Metrobus,0,0
707,Mobil,Metrobus,Metrobus-M3074,IETT Metrobus,0,0
708,Mobil,Metrobus,Metrobus-M3075,IETT Metrobus,0,0
709,Mobil,Metrobus,Metrobus-M3076,IETT Metrobus,0,0
710,Mobil,Metrobus,Metrobus-M3077,IETT Metrobus,0,0
711,Mobil,Metrobus,Metrobus-M3078,IETT Metrobus,0,0
712,Mobil,Metrobus,Metrobus-M3079,IETT Metrobus,0,0
713,Mobil,Metrobus,Metrobus-M3080,IETT Metrobus,0,0
714,Mobil,Metrobus,Metrobus-M3081,IETT Metrobus,0,0
715,Mobil,Metrobus,Metrobus-M3082,IETT Metrobus,0,0
716,Mobil,Metrobus,Metrobus-M3083,IETT Metrobus,0,0
717,Mobil,Metrobus,Metrobus-M3084,IETT Metrobus,0,0
718,Mobil,Metrobus,Metrobus-M3085,IETT Metrobus,0,0
719,Mobil,Metrobus,Metrobus-M3086,IETT Metrobus,0,0
720,Mobil,Metrobus,Metrobus-M3087,IETT Metrobus,0,0
721,Mobil,Metrobus,Metrobus-M3088,IETT Metrobus,0,0
722,Mobil,Metrobus,Metrobus-M3089,IETT Metrobus,0,0
723,Mobil,Metrobus,Metrobus-M3090,IETT Metrobus,0,0
724,Mobil,Metrobus,Metrobus-M3091,IETT Metrobus,0,0
725,Mobil,Metrobus,Metrobus-M3092,IETT Metrobus,0,0
726,Mobil,Metrobus,Metrobus-M3093,IETT Metrobus,0,0
727,Mobil,Metrobus,Metrobus-M3094,IETT Metrobus,0,0
728,Mobil,Metrobus,Metrobus-M3095,IETT Metrobus,0,0
729,Mobil,Metrobus,Metrobus-M3096,IETT Metrobus,0,0
730,Mobil,Metrobus,Metrobus-M3097,IETT Metrobus,0,0
731,Mobil,Metrobus,Metrobus-M3098,IETT Metrobus,0,0
732,Mobil,Metrobus,Metrobus-M3099,IETT Metrobus,0,0
733,Mobil,Metrobus,Metrobus-M3100,IETT Metrobus,0,0
734,Mobil,Metrobus,Metrobus-M3101,IETT Metrobus,0,0
735,Mobil,Metrobus,Metrobus-M3102,IETT Metrobus,0,0
736,Mobil,Metrobus,Metrobus-M3103,IETT Metrobus,0,0
737,Mobil,Metrobus,Metrobus-M3104,IETT Metrobus,0,0
738,Mobil,Metrobus,Metrobus-M3105,IETT Metrobus,0,0
739,Mobil,Metrobus,Metrobus-M3106,IETT Metrobus,0,0
740,Mobil,Metrobus,Metrobus-M3107,IETT Metrobus,0,0
741,Mobil,Metrobus,Metrobus-M3108,IETT Metrobus,0,0
742,Mobil,Metrobus,Metrobus-M3109,IETT Metrobus,0,0
743,Mobil,Metrobus,Metrobus-M3110,IETT Metrobus,0,0
744,Mobil,Metrobus,Metrobus-M3111,IETT Metrobus,0,0
745,Mobil,Metrobus,Metrobus-M3112,IETT Metrobus,0,0
746,Mobil,Metrobus,Metrobus-M3113,IETT Metrobus,0,0
747,Mobil,Metrobus,Metrobus-M3114,IETT Metrobus,0,0
748,Mobil,Metrobus,Metrobus-M3115,IETT Metrobus,0,0
749,Mobil,Metrobus,Metrobus-M3116,IETT Metrobus,0,0
750,Mobil,Metrobus,Metrobus-M3117,IETT Metrobus,0,0
751,Mobil,Metrobus,Metrobus-M3118,IETT Metrobus,0,0
752,Mobil,Metrobus,Metrobus-M3119,IETT Metrobus,0,0
753,Mobil,Metrobus,Metrobus-M3120,IETT Metrobus,0,0
754,Mobil,Metrobus,Metrobus-M3122,IETT Metrobus,0,0
755,Mobil,Metrobus,Metrobus-M3123,IETT Metrobus,0,0
756,Mobil,Metrobus,Metrobus-M3124,IETT Metrobus,0,0
757,Mobil,Metrobus,Metrobus-M3125,IETT Metrobus,0,0
758,Mobil,Metrobus,Metrobus-M3126,IETT Metrobus,0,0
759,Mobil,Metrobus,Metrobus-M3127,IETT Metrobus,0,0
760,Mobil,Metrobus,Metrobus-M3128,IETT Metrobus,0,0
761,Mobil,Metrobus,Metrobus-M3129,IETT Metrobus,0,0
762,Mobil,Metrobus,Metrobus-M3130,IETT Metrobus,0,0
763,Mobil,Metrobus,Metrobus-M3131,IETT Metrobus,0,0
764,Mobil,Metrobus,Metrobus-M3132,IETT Metrobus,0,0
765,Mobil,Metrobus,Metrobus-M3133,IETT Metrobus,0,0
766,Mobil,Metrobus,Metrobus-M3134,IETT Metrobus,0,0
767,Mobil,Metrobus,Metrobus-M3135,IETT Metrobus,0,0
768,Mobil,Metrobus,Metrobus-M3136,IETT Metrobus,0,0
769,Mobil,Metrobus,Metrobus-M3137,IETT Metrobus,0,0
770,Mobil,Metrobus,Metrobus-M3138,IETT Metrobus,0,0
771,Mobil,Metrobus,Metrobus-M3139,IETT Metrobus,0,0
772,Mobil,Metrobus,Metrobus-M3140,IETT Metrobus,0,0
773,Mobil,Metrobus,Metrobus-M3141,IETT Metrobus,0,0
774,Mobil,Metrobus,Metrobus-M3143,IETT Metrobus,0,0
775,Mobil,Metrobus,Metrobus-M3144,IETT Metrobus,0,0
776,Mobil,Metrobus,Metrobus-M3145,IETT Metrobus,0,0
777,Mobil,Metrobus,Metrobus-M3146,IETT Metrobus,0,0
778,Mobil,Metrobus,Metrobus-M3147,IETT Metrobus,0,0
779,Mobil,Metrobus,Metrobus-M3148,IETT Metrobus,0,0
780,Mobil,Metrobus,Metrobus-M3149,IETT Metrobus,0,0
781,Mobil,Metrobus,Metrobus-M3150,IETT Metrobus,0,0
782,Mobil,Metrobus,Metrobus-M3151,IETT Metrobus,0,0
783,Mobil,Metrobus,Metrobus-M3152,IETT Metrobus,0,0
784,Mobil,Metrobus,Metrobus-M3153,IETT Metrobus,0,0
785,Mobil,Metrobus,Metrobus-M3154,IETT Metrobus,0,0
786,Mobil,Metrobus,Metrobus-M3155,IETT Metrobus,0,0
787,Mobil,Metrobus,Metrobus-M3156,IETT Metrobus,0,0
788,Mobil,Metrobus,Metrobus-M3157,IETT Metrobus,0,0
789,Mobil,Metrobus,Metrobus-M3158,IETT Metrobus,0,0
790,Mobil,Metrobus,Metrobus-M3159,IETT Metrobus,0,0
791,Mobil,Metrobus,Metrobus-M3160,IETT Metrobus,0,0
792,Mobil,Metrobus,Metrobus-M3161,IETT Metrobus,0,0
793,Mobil,Metrobus,Metrobus-M3162,IETT Metrobus,0,0
794,Mobil,Metrobus,Metrobus-M3163,IETT Metrobus,0,0
795,Mobil,Metrobus,Metrobus-M3164,IETT Metrobus,0,0
796,Mobil,Metrobus,Metrobus-M3165,IETT Metrobus,0,0
797,Mobil,Metrobus,Metrobus-M3166,IETT Metrobus,0,0
798,Mobil,Metrobus,Metrobus-M3167,IETT Metrobus,0,0
799,Mobil,Metrobus,Metrobus-M3168,IETT Metrobus,0,0
800,Mobil,Metrobus,Metrobus-M3169,IETT Metrobus,0,0
801,Mobil,Metrobus,Metrobus-M3170,IETT Metrobus,0,0
802,Mobil,Metrobus,Metrobus-M3171,IETT Metrobus,0,0
803,Mobil,Metrobus,Metrobus-M3172,IETT Metrobus,0,0
804,Mobil,Metrobus,Metrobus-M3173,IETT Metrobus,0,0
805,Mobil,Metrobus,Metrobus-M3174,IETT Metrobus,0,0
806,Mobil,Metrobus,Metrobus-M3175,IETT Metrobus,0,0
807,Mobil,Metrobus,Metrobus-M3176,IETT Metrobus,0,0
808,Mobil,Metrobus,Metrobus-M3177,IETT Metrobus,0,0
809,Mobil,Metrobus,Metrobus-M3178,IETT Metrobus,0,0
810,Mobil,Metrobus,Metrobus-M3179,IETT Metrobus,0,0
811,Mobil,Metrobus,Metrobus-M3180,IETT Metrobus,0,0
812,Mobil,Metrobus,Metrobus-M3181,IETT Metrobus,0,0
813,Mobil,Metrobus,Metrobus-M3182,IETT Metrobus,0,0
814,Mobil,Metrobus,Metrobus-M3183,IETT Metrobus,0,0
815,Mobil,Metrobus,Metrobus-M3184,IETT Metrobus,0,0
816,Mobil,Metrobus,Metrobus-M3185,IETT Metrobus,0,0
817,Mobil,Metrobus,Metrobus-M3186,IETT Metrobus,0,0
818,Mobil,Metrobus,Metrobus-M3187,IETT Metrobus,0,0
819,Mobil,Metrobus,Metrobus-M3188,IETT Metrobus,0,0
820,Mobil,Metrobus,Metrobus-M3189,IETT Metrobus,0,0
821,Mobil,Metrobus,Metrobus-M3190,IETT Metrobus,0,0
822,Mobil,Metrobus,Metrobus-M3191,IETT Metrobus,0,0
823,Mobil,Metrobus,Metrobus-M3192,IETT Metrobus,0,0
824,Mobil,Metrobus,Metrobus-M3193,IETT Metrobus,0,0
825,Mobil,Metrobus,Metrobus-M3194,IETT Metrobus,0,0
826,Mobil,Metrobus,Metrobus-M3195,IETT Metrobus,0,0
827,Mobil,Metrobus,Metrobus-M3196,IETT Metrobus,0,0
828,Mobil,Metrobus,Metrobus-M3197,IETT Metrobus,0,0
829,Mobil,Metrobus,Metrobus-M3198,IETT Metrobus,0,0
830,Mobil,Metrobus,Metrobus-M3199,IETT Metrobus,0,0
831,Mobil,Metrobus,Metrobus-M3200,IETT Metrobus,0,0
832,Mobil,Metrobus,Metrobus-M3201,IETT Metrobus,0,0
833,Mobil,Metrobus,Metrobus-M3202,IETT Metrobus,0,0
834,Mobil,Metrobus,Metrobus-M3203,IETT Metrobus,0,0
835,Mobil,Metrobus,Metrobus-M3204,IETT Metrobus,0,0
836,Mobil,Metrobus,Metrobus-M3205,IETT Metrobus,0,0
837,Mobil,Metrobus,Metrobus-M3206,IETT Metrobus,0,0
838,Mobil,Metrobus,Metrobus-M3207,IETT Metrobus,0,0
839,Mobil,Metrobus,Metrobus-M3208,IETT Metrobus,0,0
840,Mobil,Metrobus,Metrobus-M3209,IETT Metrobus,0,0
841,Mobil,Metrobus,Metrobus-M3210,IETT Metrobus,0,0
842,Mobil,Metrobus,Metrobus-M3211,IETT Metrobus,0,0
843,Mobil,Metrobus,Metrobus-M3212,IETT Metrobus,0,0
844,Mobil,Metrobus,Metrobus-M3213,IETT Metrobus,0,0
845,Mobil,Metrobus,Metrobus-M3214,IETT Metrobus,0,0
846,Mobil,Metrobus,Metrobus-M3215,IETT Metrobus,0,0
847,Mobil,Metrobus,Metrobus-M3216,IETT Metrobus,0,0
848,Mobil,Metrobus,Metrobus-M3217,IETT Metrobus,0,0
849,Mobil,Metrobus,Metrobus-M3218,IETT Metrobus,0,0
850,Mobil,Metrobus,Metrobus-M3219,IETT Metrobus,0,0
851,Mobil,Metrobus,Metrobus-M3220,IETT Metrobus,0,0
852,Mobil,Metrobus,Metrobus-M3221,IETT Metrobus,0,0
853,Mobil,Metrobus,Metrobus-M3222,IETT Metrobus,0,0
854,Mobil,Metrobus,Metrobus-M3223,IETT Metrobus,0,0
855,Mobil,Metrobus,Metrobus-M3225,IETT Metrobus,0,0
856,Mobil,Metrobus,Metrobus-M3226,IETT Metrobus,0,0
857,Mobil,Metrobus,Metrobus-M3227,IETT Metrobus,0,0
858,Mobil,Metrobus,Metrobus-M3228,IETT Metrobus,0,0
859,Mobil,Metrobus,Metrobus-M3229,IETT Metrobus,0,0
860,Mobil,Metrobus,Metrobus-M3231,IETT Metrobus,0,0
861,Mobil,Metrobus,Metrobus-M3232,IETT Metrobus,0,0
862,Mobil,Metrobus,Metrobus-M3233,IETT Metrobus,0,0
863,Mobil,Metrobus,Metrobus-M3234,IETT Metrobus,0,0
864,Mobil,Metrobus,Metrobus-M3235,IETT Metrobus,0,0
865,Mobil,Metrobus,Metrobus-M3236,IETT Metrobus,0,0
866,Mobil,Metrobus,Metrobus-M3237,IETT Metrobus,0,0
867,Mobil,Metrobus,Metrobus-M3238,IETT Metrobus,0,0
868,Mobil,Metrobus,Metrobus-M3239,IETT Metrobus,0,0
869,Mobil,Metrobus,Metrobus-M3240,IETT Metrobus,0,0
870,Mobil,Metrobus,Metrobus-M3241,IETT Metrobus,0,0
871,Mobil,Metrobus,Metrobus-M3242,IETT Metrobus,0,0
872,Mobil,Metrobus,Metrobus-M3243,IETT Metrobus,0,0
873,Mobil,Metrobus,Metrobus-M3244,IETT Metrobus,0,0
874,Mobil,Metrobus,Metrobus-M3245,IETT Metrobus,0,0
875,Mobil,Metrobus,Metrobus-M3246,IETT Metrobus,0,0
876,Mobil,Metrobus,Metrobus-M3247,IETT Metrobus,0,0
877,Mobil,Metrobus,Metrobus-M3249,IETT Metrobus,0,0
878,Mobil,Metrobus,Metrobus-M3250,IETT Metrobus,0,0
879,Mobil,Metrobus,Metrobus-M4501,IETT Metrobus,0,0
880,Mobil,Metrobus,Metrobus-M4514,IETT Metrobus,0,0
881,Mobil,Metrobus,Metrobus-M4517,IETT Metrobus,0,0
882,Mobil,Metrobus,Metrobus-M4521,IETT Metrobus,0,0
883,Mobil,Metrobus,Metrobus-M4522,IETT Metrobus,0,0
884,Mobil,Metrobus,Metrobus-M4526,IETT Metrobus,0,0
885,Mobil,Metrobus,Metrobus-M4527,IETT Metrobus,0,0
886,Mobil,Metrobus,Metrobus-M4528,IETT Metrobus,0,0
887,Mobil,Metrobus,Metrobus-M4531,IETT Metrobus,0,0
888,Mobil,Metrobus,Metrobus-M4533,IETT Metrobus,0,0
889,Mobil,Metrobus,Metrobus-M4535,IETT Metrobus,0,0
890,Mobil,Metrobus,Metrobus-M4538,IETT Metrobus,0,0
891,Mobil,Metrobus,Metrobus-M4540,IETT Metrobus,0,0
892,Mobil,Metrobus,Metrobus-M4541,IETT Metrobus,0,0
893,Mobil,Metrobus,Metrobus-M4545,IETT Metrobus,0,0
894,Mobil,Metrobus,Metrobus-M4546,IETT Metrobus,0,0
895,Mobil,Metrobus,Metrobus-M4547,IETT Metrobus,0,0
896,Mobil,Metrobus,Metrobus-M4548,IETT Metrobus,0,0
897,Mobil,Metrobus,Metrobus-M4551,IETT Metrobus,0,0
898,Mobil,Metrobus,Metrobus-M4552,IETT Metrobus,0,0
899,Mobil,Metrobus,Metrobus-M4553,IETT Metrobus,0,0
900,Mobil,Metrobus,Metrobus-M4558,IETT Metrobus,0,0
901,Mobil,Metrobus,Metrobus-M4562,IETT Metrobus,0,0
902,Mobil,Metrobus,Metrobus-M4563,IETT Metrobus,0,0
903,Mobil,Metrobus,Metrobus-M4564,IETT Metrobus,0,0
904,Mobil,Metrobus,Metrobus-M4567,IETT Metrobus,0,0
905,Mobil,Metrobus,Metrobus-M4570,IETT Metrobus,0,0
906,Mobil,Metrobus,Metrobus-M4575,IETT Metrobus,0,0
907,Mobil,Metrobus,Metrobus-M4576,IETT Metrobus,0,0
908,Mobil,Metrobus,Metrobus-M4580,IETT Metrobus,0,0
909,Mobil,Metrobus,Metrobus-M4582,IETT Metrobus,0,0
910,Mobil,Metrobus,Metrobus-M4583,IETT Metrobus,0,0
911,Mobil,Metrobus,Metrobus-M4584,IETT Metrobus,0,0
912,Mobil,Metrobus,Metrobus-M4585,IETT Metrobus,0,0
913,Mobil,Metrobus,Metrobus-M4587,IETT Metrobus,0,0
914,Mobil,Metrobus,Metrobus-M4588,IETT Metrobus,0,0
915,Mobil,Metrobus,Metrobus-M4589,IETT Metrobus,0,0
916,Mobil,Metrobus,Metrobus-M4590,IETT Metrobus,0,0
917,Mobil,Metrobus,Metrobus-M4591,IETT Metrobus,0,0
918,Mobil,Metrobus,Metrobus-M4592,IETT Metrobus,0,0
919,Mobil,Metrobus,Metrobus-M4593,IETT Metrobus,0,0
920,Mobil,Metrobus,Metrobus-M4594,IETT Metrobus,0,0
921,Mobil,Metrobus,Metrobus-M4595,IETT Metrobus,0,0
922,Mobil,Metrobus,Metrobus-M4596,IETT Metrobus,0,0
923,Mobil,Metrobus,Metrobus-M4597,IETT Metrobus,0,0
924,Mobil,Metrobus,Metrobus-M4598,IETT Metrobus,0,0
925,Mobil,Metrobus,Metrobus-M4600,IETT Metrobus,0,0
926,Mobil,Metrobus,Metrobus-M4602,IETT Metrobus,0,0
927,Mobil,Metrobus,Metrobus-M4603,IETT Metrobus,0,0
928,Mobil,Metrobus,Metrobus-M4604,IETT Metrobus,0,0
929,Mobil,Metrobus,Metrobus-M4605,IETT Metrobus,0,0
930,Mobil,Metrobus,Metrobus-M4606,IETT Metrobus,0,0
931,Mobil,Metrobus,Metrobus-M4607,IETT Metrobus,0,0
932,Mobil,Metrobus,Metrobus-M4608,IETT Metrobus,0,0
933,Mobil,Metrobus,Metrobus-M4609,IETT Metrobus,0,0
934,Mobil,Metrobus,Metrobus-M4611,IETT Metrobus,0,0
935,Mobil,Metrobus,Metrobus-M4613,IETT Metrobus,0,0
936,Mobil,Metrobus,Metrobus-M4615,IETT Metrobus,0,0
937,Mobil,Metrobus,Metrobus-M4617,IETT Metrobus,0,0
938,Mobil,Metrobus,Metrobus-M4620,IETT Metrobus,0,0
939,Mobil,Metrobus,Metrobus-M4623,IETT Metrobus,0,0
940,Mobil,Metrobus,Metrobus-M4624,IETT Metrobus,0,0
941,Mobil,Metrobus,Metrobus-M4625,IETT Metrobus,0,0
942,Mobil,Metrobus,Metrobus-M4626,IETT Metrobus,0,0
943,Mobil,Metrobus,Metrobus-M4627,IETT Metrobus,0,0
944,Mobil,Metrobus,Metrobus-M4628,IETT Metrobus,0,0
945,Mobil,Metrobus,Metrobus-M4629,IETT Metrobus,0,0
946,Mobil,Metrobus,Metrobus-M4630,IETT Metrobus,0,0
947,Mobil,Metrobus,Metrobus-M4631,IETT Metrobus,0,0
948,Mobil,Metrobus,Metrobus-M4632,IETT Metrobus,0,0
949,Mobil,Metrobus,Metrobus-M4633,IETT Metrobus,0,0
950,Mobil,Metrobus,Metrobus-M4634,IETT Metrobus,0,0
951,Mobil,Metrobus,Metrobus-M4635,IETT Metrobus,0,0
952,Mobil,Metrobus,Metrobus-M4636,IETT Metrobus,0,0
953,Mobil,Metrobus,Metrobus-M4637,IETT Metrobus,0,0
954,Mobil,Metrobus,Metrobus-M4638,IETT Metrobus,0,0
955,Mobil,Metrobus,Metrobus-M4639,IETT Metrobus,0,0
956,Mobil,Metrobus,Metrobus-M4640,IETT Metrobus,0,0
957,Mobil,Metrobus,Metrobus-M4641,IETT Metrobus,0,0
958,Mobil,Metrobus,Metrobus-M4642,IETT Metrobus,0,0
959,Mobil,Metrobus,Metrobus-M4643,IETT Metrobus,0,0
960,Mobil,Metrobus,Metrobus-M4644,IETT Metrobus,0,0
961,Mobil,Metrobus,Metrobus-M4645,IETT Metrobus,0,0
962,Mobil,Metrobus,Metrobus-M4646,IETT Metrobus,0,0
963,Mobil,Metrobus,Metrobus-M4647,IETT Metrobus,0,0
964,Mobil,Metrobus,Metrobus-M4648,IETT Metrobus,0,0
965,Mobil,Metrobus,Metrobus-M4649,IETT Metrobus,0,0
966,Mobil,Metrobus,Metrobus-M4650,IETT Metrobus,0,0
967,Mobil,Metrobus,Metrobus-M4651,IETT Metrobus,0,0
968,Mobil,Metrobus,Metrobus-M4652,IETT Metrobus,0,0
969,Mobil,Metrobus,Metrobus-M4653,IETT Metrobus,0,0
970,Mobil,Metrobus,Metrobus-M4654,IETT Metrobus,0,0
971,Mobil,Metrobus,Metrobus-M4655,IETT Metrobus,0,0
972,Mobil,Metrobus,Metrobus-M4656,IETT Metrobus,0,0
973,Mobil,Metrobus,Metrobus-M4657,IETT Metrobus,0,0
974,Mobil,Metrobus,Metrobus-M4658,IETT Metrobus,0,0
975,Mobil,Metrobus,Metrobus-M4659,IETT Metrobus,0,0
976,Mobil,Metrobus,Metrobus-M4660,IETT Metrobus,0,0
977,Mobil,Metrobus,Metrobus-M4661,IETT Metrobus,0,0
978,Mobil,Metrobus,Metrobus-M4662,IETT Metrobus,0,0
979,Mobil,Metrobus,Metrobus-M4663,IETT Metrobus,0,0
980,Mobil,Metrobus,Metrobus-M4664,IETT Metrobus,0,0
981,Mobil,Metrobus,Metrobus-M4665,IETT Metrobus,0,0
982,Mobil,Metrobus,Metrobus-M4666,IETT Metrobus,0,0
983,Mobil,Metrobus,Metrobus-M4667,IETT Metrobus,0,0
984,Mobil,Metrobus,Metrobus-M4668,IETT Metrobus,0,0
985,Mobil,Metrobus,Metrobus-M4669,IETT Metrobus,0,0
986,Mobil,Metrobus,Metrobus-M4670,IETT Metrobus,0,0
987,Mobil,Metrobus,Metrobus-M4671,IETT Metrobus,0,0
988,Mobil,Metrobus,Metrobus-M4672,IETT Metrobus,0,0
989,Mobil,Metrobus,Metrobus-M4673,IETT Metrobus,0,0
990,Mobil,Metrobus,Metrobus-M4674,IETT Metrobus,0,0
991,Mobil,Metrobus,Metrobus-M4676,IETT Metrobus,0,0
992,Mobil,Metrobus,Metrobus-M4677,IETT Metrobus,0,0
993,Mobil,Metrobus,Metrobus-M4678,IETT Metrobus,0,0
994,Mobil,Metrobus,Metrobus-M4679,IETT Metrobus,0,0
995,Mobil,Metrobus,Metrobus-M4680,IETT Metrobus,0,0
996,Mobil,Metrobus,Metrobus-M4681,IETT Metrobus,0,0
997,Mobil,Metrobus,Metrobus-M4682,IETT Metrobus,0,0
998,Mobil,Metrobus,Metrobus-M4683,IETT Metrobus,0,0
999,Mobil,Metrobus,Metrobus-M4684,IETT Metrobus,0,0
1000,Mobil,Metrobus,Metrobus-M4685,IETT Metrobus,0,0
1001,Mobil,Metrobus,Metrobus-M4686,IETT Metrobus,0,0
1002,Mobil,Metrobus,Metrobus-M4687,IETT Metrobus,0,0
1003,Mobil,Metrobus,Metrobus-M4688,IETT Metrobus,0,0
1004,Mobil,Metrobus,Metrobus-M4689,IETT Metrobus,0,0
1005,Mobil,Metrobus,Metrobus-M4690,IETT Metrobus,0,0
1006,Mobil,Metrobus,Metrobus-M4691,IETT Metrobus,0,0
1007,Mobil,Metrobus,Metrobus-M4692,IETT Metrobus,0,0
1008,Mobil,Metrobus,Metrobus-M4693,IETT Metrobus,0,0
1009,Mobil,Metrobus,Metrobus-M4694,IETT Metrobus,0,0
1010,Mobil,Metrobus,Metrobus-M4695,IETT Metrobus,0,0
1011,Mobil,Metrobus,Metrobus-M4696,IETT Metrobus,0,0
1012,Mobil,Metrobus,Metrobus-M4697,IETT Metrobus,0,0
1013,Mobil,Metrobus,Metrobus-M4698,IETT Metrobus,0,0
1014,Mobil,Metrobus,Metrobus-M4699,IETT Metrobus,0,0
1015,Mobil,Metrobus,Metrobus-M4700,IETT Metrobus,0,0
1016,Mobil,Metrobus,Metrobus-M4701,IETT Metrobus,0,0
1017,Mobil,Metrobus,Metrobus-M4702,IETT Metrobus,0,0
1018,Mobil,Metrobus,Metrobus-M4703,IETT Metrobus,0,0
1019,Mobil,Metrobus,Metrobus-M4704,IETT Metrobus,0,0
1020,Mobil,Metrobus,Metrobus-M4705,IETT Metrobus,0,0
1021,Mobil,Metrobus,Metrobus-M4706,IETT Metrobus,0,0
1022,Mobil,Metrobus,Metrobus-M4707,IETT Metrobus,0,0
1023,Mobil,Metrobus,Metrobus-M4708,IETT Metrobus,0,0
1024,Mobil,Metrobus,Metrobus-M4709,IETT Metrobus,0,0
1025,Mobil,Metrobus,Metrobus-M4710,IETT Metrobus,0,0
1026,Mobil,Metrobus,Metrobus-M4711,IETT Metrobus,0,0
1027,Mobil,Metrobus,Metrobus-M4724,IETT Metrobus,0,0
1028,Mobil,Metrobus,Metrobus-M4730,IETT Metrobus,0,0
1029,Mobil,Metrobus,Metrobus-M4745,IETT Metrobus,0,0
1030,Mobil,Metrobus,Metrobus-M4801,IETT Metrobus,0,0
1031,Mobil,Metrobus,Metrobus-M4802,IETT Metrobus,0,0
1032,Mobil,Metrobus,Metrobus-M4803,IETT Metrobus,0,0
1033,Mobil,Metrobus,Metrobus-M4804,IETT Metrobus,0,0
1034,Mobil,Metrobus,Metrobus-M4805,IETT Metrobus,0,0
1035,Mobil,Metrobus,Metrobus-M4807,IETT Metrobus,0,0
1036,Mobil,Metrobus,Metrobus-M4808,IETT Metrobus,0,0
1037,Mobil,Metrobus,Metrobus-M4809,IETT Metrobus,0,0
1038,Mobil,Metrobus,Metrobus-M4810,IETT Metrobus,0,0
1039,Mobil,Metrobus,Metrobus-M4811,IETT Metrobus,0,0
1040,Mobil,Metrobus,Metrobus-M4812,IETT Metrobus,0,0
1041,Mobil,Metrobus,Metrobus-M4813,IETT Metrobus,0,0
1042,Mobil,Metrobus,Metrobus-M4814,IETT Metrobus,0,0
1043,Mobil,Metrobus,Metrobus-M4815,IETT Metrobus,0,0
1044,Mobil,Metrobus,Metrobus-M4816,IETT Metrobus,0,0
1045,Mobil,Metrobus,Metrobus-M4817,IETT Metrobus,0,0
1046,Mobil,Metrobus,Metrobus-M4818,IETT Metrobus,0,0
1047,Mobil,Metrobus,Metrobus-M4819,IETT Metrobus,0,0
1048,Mobil,Metrobus,Metrobus-M4820,IETT Metrobus,0,0
1049,Mobil,Metrobus,Metrobus-M4821,IETT Metrobus,0,0
1050,Mobil,Metrobus,Metrobus-M4822,IETT Metrobus,0,0
1051,Mobil,Metrobus,Metrobus-M4823,IETT Metrobus,0,0
1052,Mobil,Metrobus,Metrobus-M4824,IETT Metrobus,0,0
1053,Mobil,Metrobus,Metrobus-M4825,IETT Metrobus,0,0
1054,Mobil,Metrobus,Metrobus-M4826,IETT Metrobus,0,0
1055,Mobil,Metrobus,Metrobus-M4827,IETT Metrobus,0,0
1056,Mobil,Metrobus,Metrobus-M4828,IETT Metrobus,0,0
1057,Mobil,Metrobus,Metrobus-M4829,IETT Metrobus,0,0
1058,Mobil,Metrobus,Metrobus-M4830,IETT Metrobus,0,0
1059,Mobil,Metrobus,Metrobus-M4831,IETT Metrobus,0,0
1060,Mobil,Metrobus,Metrobus-M4832,IETT Metrobus,0,0
1061,Mobil,Metrobus,Metrobus-M4833,IETT Metrobus,0,0
1062,Mobil,Metrobus,Metrobus-M4834,IETT Metrobus,0,0
1063,Mobil,Metrobus,Metrobus-M4835,IETT Metrobus,0,0
1064,Mobil,Metrobus,Metrobus-M4836,IETT Metrobus,0,0
1065,Mobil,Metrobus,Metrobus-M4837,IETT Metrobus,0,0
1066,Mobil,Metrobus,Metrobus-M4838,IETT Metrobus,0,0
1067,Mobil,Metrobus,Metrobus-M4839,IETT Metrobus,0,0
1068,Mobil,Metrobus,Metrobus-M4840,IETT Metrobus,0,0
1069,Mobil,Metrobus,Metrobus-M4841,IETT Metrobus,0,0
1070,Mobil,Metrobus,Metrobus-M4842,IETT Metrobus,0,0
1071,Mobil,Metrobus,Metrobus-M4843,IETT Metrobus,0,0
1072,Mobil,Metrobus,Metrobus-M4844,IETT Metrobus,0,0
1073,Mobil,Metrobus,Metrobus-M4845,IETT Metrobus,0,0
1074,Mobil,Metrobus,Metrobus-M4846,IETT Metrobus,0,0
1075,Mobil,Metrobus,Metrobus-M4847,IETT Metrobus,0,0
1076,Mobil,Metrobus,Metrobus-M4848,IETT Metrobus,0,0
1077,Mobil,Metrobus,Metrobus-M4849,IETT Metrobus,0,0
1078,Mobil,Metrobus,Metrobus-M4850,IETT Metrobus,0,0
1079,Mobil,Metrobus,Metrobus-M4851,IETT Metrobus,0,0
1080,Mobil,Metrobus,Metrobus-M4852,IETT Metrobus,0,0
1081,Mobil,Metrobus,Metrobus-M4853,IETT Metrobus,0,0
1082,Mobil,Metrobus,Metrobus-M4854,IETT Metrobus,0,0
1083,Mobil,Metrobus,Metrobus-M4855,IETT Metrobus,0,0
1084,Mobil,Metrobus,Metrobus-M4856,IETT Metrobus,0,0
1085,Mobil,Metrobus,Metrobus-M4857,IETT Metrobus,0,0
1086,Mobil,Metrobus,Metrobus-M4858,IETT Metrobus,0,0
1087,Mobil,Metrobus,Metrobus-M4859,IETT Metrobus,0,0
1088,Mobil,Metrobus,Metrobus-M4860,IETT Metrobus,0,0
1089,Mobil,Metrobus,Metrobus-M4861,IETT Metrobus,0,0
1090,Mobil,Metrobus,Metrobus-M4862,IETT Metrobus,0,0
1091,Mobil,Metrobus,Metrobus-M4863,IETT Metrobus,0,0
1092,Mobil,Metrobus,Metrobus-M4864,IETT Metrobus,0,0
1093,Mobil,Metrobus,Metrobus-M4865,IETT Metrobus,0,0
1094,Mobil,Metrobus,Metrobus-M4866,IETT Metrobus,0,0
1095,Mobil,Metrobus,Metrobus-M4867,IETT Metrobus,0,0
1096,Mobil,Metrobus,Metrobus-M4868,IETT Metrobus,0,0
1097,Mobil,Metrobus,Metrobus-M4869,IETT Metrobus,0,0
1098,Mobil,Metrobus,Metrobus-M4870,IETT Metrobus,0,0
1099,Mobil,Metrobus,Metrobus-M4871,IETT Metrobus,0,0
1100,Mobil,Metrobus,Metrobus-M4872,IETT Metrobus,0,0
1101,Mobil,Metrobus,Metrobus-M4873,IETT Metrobus,0,0
1102,Mobil,Metrobus,Metrobus-M4874,IETT Metrobus,0,0
1103,Mobil,Metrobus,Metrobus-M4875,IETT Metrobus,0,0
1104,Mobil,Metrobus,Metrobus-M4876,IETT Metrobus,0,0
1105,Mobil,Metrobus,Metrobus-M4877,IETT Metrobus,0,0
1106,Mobil,Metrobus,Metrobus-M4878,IETT Metrobus,0,0
1107,Mobil,Metrobus,Metrobus-M4879,IETT Metrobus,0,0
1108,Mobil,Metrobus,Metrobus-M4880,IETT Metrobus,0,0
1109,Mobil,Metrobus,Metrobus-M4881,IETT Metrobus,0,0
1110,Mobil,Metrobus,Metrobus-M4882,IETT Metrobus,0,0
1111,Mobil,Metrobus,Metrobus-M4883,IETT Metrobus,0,0
1112,Mobil,Metrobus,Metrobus-M4884,IETT Metrobus,0,0
1113,Mobil,Metrobus,Metrobus-M4885,IETT Metrobus,0,0
1114,Mobil,Metrobus,Metrobus-M4886,IETT Metrobus,0,0
1115,Mobil,Metrobus,Metrobus-M4887,IETT Metrobus,0,0
1116,Mobil,Metrobus,Metrobus-M4888,IETT Metrobus,0,0
1117,Mobil,Metrobus,Metrobus-M4889,IETT Metrobus,0,0
1118,Mobil,Metrobus,Metrobus-M4890,IETT Metrobus,0,0
1119,Mobil,Metrobus,Metrobus-M4891,IETT Metrobus,0,0
1120,Mobil,Metrobus,Metrobus-M4892,IETT Metrobus,0,0
1121,Mobil,Metrobus,Metrobus-M4893,IETT Metrobus,0,0
1122,Mobil,Metrobus,Metrobus-M4894,IETT Metrobus,0,0
1123,Mobil,Metrobus,Metrobus-M4895,IETT Metrobus,0,0
1124,Mobil,Metrobus,Metrobus-M4896,IETT Metrobus,0,0
1125,Mobil,Metrobus,Metrobus-M4897,IETT Metrobus,0,0
1126,Mobil,Metrobus,Metrobus-M4898,IETT Metrobus,0,0
1127,Mobil,Metrobus,Metrobus-M4899,IETT Metrobus,0,0
1128,Mobil,Metrobus,Metrobus-M4900,IETT Metrobus,0,0
1129,Mobil,Metrobus,Metrobus-M4901,IETT Metrobus,0,0
1130,Mobil,Metrobus,Metrobus-M4902,IETT Metrobus,0,0
1131,Mobil,Metrobus,Metrobus-M4904,IETT Metrobus,0,0
1132,Mobil,Metrobus,Metrobus-M4905,IETT Metrobus,0,0
1133,Mobil,Metrobus,Metrobus-M4906,IETT Metrobus,0,0
1134,Mobil,Metrobus,Metrobus-M4909,IETT Metrobus,0,0
1135,Mobil,Metrobus,Metrobus-M4911,IETT Metrobus,0,0
1136,Mobil,Metrobus,Metrobus-M4912,IETT Metrobus,0,0
1137,Mobil,Metrobus,Metrobus-M4913,IETT Metrobus,0,0
1138,Mobil,Metrobus,Metrobus-M4916,IETT Metrobus,0,0
1139,Mobil,Metrobus,Metrobus-M4917,IETT Metrobus,0,0
1140,Mobil,Metrobus,Metrobus-M4918,IETT Metrobus,0,0
1141,Mobil,Metrobus,Metrobus-M4919,IETT Metrobus,0,0
1142,Mobil,Metrobus,Metrobus-M4921,IETT Metrobus,0,0
1143,Mobil,Metrobus,Metrobus-M4922,IETT Metrobus,0,0
1144,Mobil,Metrobus,Metrobus-M4923,IETT Metrobus,0,0
1145,Mobil,Metrobus,Metrobus-M4924,IETT Metrobus,0,0
1146,Mobil,Metrobus,Metrobus-M4925,IETT Metrobus,0,0
1147,Mobil,Otobus 4G,IETT-B3001,IETT Otobus,0,0
1148,Mobil,Otobus 4G,IETT-B3002,IETT Otobus,0,0
1149,Mobil,Otobus 4G,IETT-B3003,IETT Otobus,0,0
1150,Mobil,Otobus 4G,IETT-B3004,IETT Otobus,0,0
1151,Mobil,Otobus 4G,IETT-B4001,IETT Otobus,0,0
1152,Mobil,Otobus 4G,IETT-B4002,IETT Otobus,0,0
1153,Mobil,Otobus 4G,IETT-B4003,IETT Otobus,0,0
1154,Mobil,Otobus 4G,IETT-B4004,IETT Otobus,0,0
1155,Mobil,Otobus 4G,IETT-B4005,IETT Otobus,0,0
1156,Mobil,Otobus 4G,IETT-B4006,IETT Otobus,0,0
1157,Mobil,Otobus 4G,IETT-B4007,IETT Otobus,0,0
1158,Mobil,Otobus 4G,IETT-B4008,IETT Otobus,0,0
1159,Mobil,Otobus 4G,IETT-B4009,IETT Otobus,0,0
1160,Mobil,Otobus 4G,IETT-B4010,IETT Otobus,0,0
1161,Mobil,Otobus 4G,IETT-B4011,IETT Otobus,0,0
1162,Mobil,Otobus 4G,IETT-B4012,IETT Otobus,0,0
1163,Mobil,Otobus 4G,IETT-B4013,IETT Otobus,0,0
1164,Mobil,Otobus 4G,IETT-B4014,IETT Otobus,0,0
1165,Mobil,Otobus 4G,IETT-B4015,IETT Otobus,0,0
1166,Mobil,Otobus 4G,IETT-B4016,IETT Otobus,0,0
1167,Mobil,Otobus 4G,IETT-B4017,IETT Otobus,0,0
1168,Mobil,Otobus 4G,IETT-B4018,IETT Otobus,0,0
1169,Mobil,Otobus 4G,IETT-B4019,IETT Otobus,0,0
1170,Mobil,Otobus 4G,IETT-B4020,IETT Otobus,0,0
1171,Mobil,Otobus 4G,IETT-B4021,IETT Otobus,0,0
1172,Mobil,Otobus 4G,IETT-B4022,IETT Otobus,0,0
1173,Mobil,Otobus 4G,IETT-B4023,IETT Otobus,0,0
1174,Mobil,Otobus 4G,IETT-B4024,IETT Otobus,0,0
1175,Mobil,Otobus 4G,IETT-B4025,IETT Otobus,0,0
1176,Mobil,Otobus 4G,IETT-B4026,IETT Otobus,0,0
1177,Mobil,Otobus 4G,IETT-B4027,IETT Otobus,0,0
1178,Mobil,Otobus 4G,IETT-B4028,IETT Otobus,0,0
1179,Mobil,Otobus 4G,IETT-B4029,IETT Otobus,0,0
1180,Mobil,Otobus 4G,IETT-B4030,IETT Otobus,0,0
1181,Mobil,Otobus 4G,IETT-B4031,IETT Otobus,0,0
1182,Mobil,Otobus 4G,IETT-B4032,IETT Otobus,0,0
1183,Mobil,Otobus 4G,IETT-B4033,IETT Otobus,0,0
1184,Mobil,Otobus 4G,IETT-B4034,IETT Otobus,0,0
1185,Mobil,Otobus 4G,IETT-B4035,IETT Otobus,0,0
1186,Mobil,Otobus 4G,IETT-B4036,IETT Otobus,0,0
1187,Mobil,Otobus 4G,IETT-B4037,IETT Otobus,0,0
1188,Mobil,Otobus 4G,IETT-B4038,IETT Otobus,0,0
1189,Mobil,Otobus 4G,IETT-B4039,IETT Otobus,0,0
1190,Mobil,Otobus 4G,IETT-B4040,IETT Otobus,0,0
1191,Mobil,Otobus 4G,IETT-B4041,IETT Otobus,0,0
1192,Mobil,Otobus 4G,IETT-B4042,IETT Otobus,0,0
1193,Mobil,Otobus 4G,IETT-B4043,IETT Otobus,0,0
1194,Mobil,Otobus 4G,IETT-B4044,IETT Otobus,0,0
1195,Mobil,Otobus 4G,IETT-B5001,IETT Otobus,0,0
1196,Mobil,Otobus 4G,IETT-B5002,IETT Otobus,0,0
1197,Mobil,Otobus 4G,IETT-B5003,IETT Otobus,0,0
1198,Mobil,Otobus 4G,IETT-B5004,IETT Otobus,0,0
1199,Mobil,Otobus 4G,IETT-B5005,IETT Otobus,0,0
1200,Mobil,Otobus 4G,IETT-B5006,IETT Otobus,0,0
1201,Mobil,Otobus 4G,IETT-B5007,IETT Otobus,0,0
1202,Mobil,Otobus 4G,IETT-B5008,IETT Otobus,0,0
1203,Mobil,Otobus 4G,IETT-B5009,IETT Otobus,0,0
1204,Mobil,Otobus 4G,IETT-B5010,IETT Otobus,0,0
1205,Mobil,Otobus 4G,IETT-B5011,IETT Otobus,0,0
1206,Mobil,Otobus 4G,IETT-B5012,IETT Otobus,0,0
1207,Mobil,Otobus 4G,IETT-B5013,IETT Otobus,0,0
1208,Mobil,Otobus 4G,IETT-B5014,IETT Otobus,0,0
1209,Mobil,Otobus 4G,IETT-B5015,IETT Otobus,0,0
1210,Mobil,Otobus 4G,IETT-B5016,IETT Otobus,0,0
1211,Mobil,Otobus 4G,IETT-B5017,IETT Otobus,0,0
1212,Mobil,Otobus 4G,IETT-B5018,IETT Otobus,0,0
1213,Mobil,Otobus 4G,IETT-B5019,IETT Otobus,0,0
1214,Mobil,Otobus 4G,IETT-B5020,IETT Otobus,0,0
1215,Mobil,Otobus 4G,IETT-B5021,IETT Otobus,0,0
1216,Mobil,Otobus 4G,IETT-B5022,IETT Otobus,0,0
1217,Mobil,Otobus 4G,IETT-B5023,IETT Otobus,0,0
1218,Mobil,Otobus 4G,IETT-B5024,IETT Otobus,0,0
1219,Mobil,Otobus 4G,IETT-B5025,IETT Otobus,0,0
1220,Mobil,Otobus 4G,IETT-B5026,IETT Otobus,0,0
1221,Mobil,Otobus 4G,IETT-B5027,IETT Otobus,0,0
1222,Mobil,Otobus 4G,IETT-B5028,IETT Otobus,0,0
1223,Mobil,Otobus 4G,IETT-B5029,IETT Otobus,0,0
1224,Mobil,Otobus 4G,IETT-B5030,IETT Otobus,0,0
1225,Mobil,Otobus 4G,IETT-B5031,IETT Otobus,0,0
1226,Mobil,Otobus 4G,IETT-B5032,IETT Otobus,0,0
1227,Mobil,Otobus 4G,IETT-B5033,IETT Otobus,0,0
1228,Mobil,Otobus 4G,IETT-B5034,IETT Otobus,0,0
1229,Mobil,Otobus 4G,IETT-B5035,IETT Otobus,0,0
1230,Mobil,Otobus 4G,IETT-B5036,IETT Otobus,0,0
1231,Mobil,Otobus 4G,IETT-B5037,IETT Otobus,0,0
1232,Mobil,Otobus 4G,IETT-B5038,IETT Otobus,0,0
1233,Mobil,Otobus 4G,IETT-B5039,IETT Otobus,0,0
1234,Mobil,Otobus 4G,IETT-B5040,IETT Otobus,0,0
1235,Mobil,Otobus 4G,IETT-B5041,IETT Otobus,0,0
1236,Mobil,Otobus 4G,IETT-B5042,IETT Otobus,0,0
1237,Mobil,Otobus 4G,IETT-B5043,IETT Otobus,0,0
1238,Mobil,Otobus 4G,IETT-B5044,IETT Otobus,0,0
1239,Mobil,Otobus 4G,IETT-B5045,IETT Otobus,0,0
1240,Mobil,Otobus 4G,IETT-B5046,IETT Otobus,0,0
1241,Mobil,Otobus 4G,IETT-B5047,IETT Otobus,0,0
1242,Mobil,Otobus 4G,IETT-B5048,IETT Otobus,0,0
1243,Mobil,Otobus 4G,IETT-B5049,IETT Otobus,0,0
1244,Mobil,Otobus 4G,IETT-B5050,IETT Otobus,0,0
1245,Mobil,Otobus 4G,IETT-B5051,IETT Otobus,0,0
1246,Mobil,Otobus 4G,IETT-B5052,IETT Otobus,0,0
1247,Mobil,Otobus 4G,IETT-B5053,IETT Otobus,0,0
1248,Mobil,Otobus 4G,IETT-B5054,IETT Otobus,0,0
1249,Mobil,Otobus 4G,IETT-B5055,IETT Otobus,0,0
1250,Mobil,Otobus 4G,IETT-B5056,IETT Otobus,0,0
1251,Mobil,Otobus 4G,IETT-B5057,IETT Otobus,0,0
1252,Mobil,Otobus 4G,IETT-B5058,IETT Otobus,0,0
1253,Mobil,Otobus 4G,IETT-B5059,IETT Otobus,0,0
1254,Mobil,Otobus 4G,IETT-B5060,IETT Otobus,0,0
1255,Mobil,Otobus 4G,IETT-B5061,IETT Otobus,0,0
1256,Mobil,Otobus 4G,IETT-B5062,IETT Otobus,0,0
1257,Mobil,Otobus 4G,IETT-B5063,IETT Otobus,0,0
1258,Mobil,Otobus 4G,IETT-B5064,IETT Otobus,0,0
1259,Mobil,Otobus 4G,IETT-B5065,IETT Otobus,0,0
1260,Mobil,Otobus 4G,IETT-B5066,IETT Otobus,0,0
1261,Mobil,Otobus 4G,IETT-B5067,IETT Otobus,0,0
1262,Mobil,Otobus 4G,IETT-B5068,IETT Otobus,0,0
1263,Mobil,Otobus 4G,IETT-B5069,IETT Otobus,0,0
1264,Mobil,Otobus 4G,IETT-B5070,IETT Otobus,0,0
1265,Mobil,Otobus 4G,IETT-B5071,IETT Otobus,0,0
1266,Mobil,Otobus 4G,IETT-B5072,IETT Otobus,0,0
1267,Mobil,Otobus 4G,IETT-B5073,IETT Otobus,0,0
1268,Mobil,Otobus 4G,IETT-B5074,IETT Otobus,0,0
1269,Mobil,Otobus 4G,IETT-B5075,IETT Otobus,0,0
1270,Mobil,Otobus 4G,IETT-B5076,IETT Otobus,0,0
1271,Mobil,Otobus 4G,IETT-B5077,IETT Otobus,0,0
1272,Mobil,Otobus 4G,IETT-B5078,IETT Otobus,0,0
1273,Mobil,Otobus 4G,IETT-B5079,IETT Otobus,0,0
1274,Mobil,Otobus 4G,IETT-B5080,IETT Otobus,0,0
1275,Mobil,Otobus 4G,IETT-B5081,IETT Otobus,0,0
1276,Mobil,Otobus 4G,IETT-B5082,IETT Otobus,0,0
1277,Mobil,Otobus 4G,IETT-B5083,IETT Otobus,0,0
1278,Mobil,Otobus 4G,IETT-B5084,IETT Otobus,0,0
1279,Mobil,Otobus 4G,IETT-B5085,IETT Otobus,0,0
1280,Mobil,Otobus 4G,IETT-B5086,IETT Otobus,0,0
1281,Mobil,Otobus 4G,IETT-B5087,IETT Otobus,0,0
1282,Mobil,Otobus 4G,IETT-B5088,IETT Otobus,0,0
1283,Mobil,Otobus 4G,IETT-B5089,IETT Otobus,0,0
1284,Mobil,Otobus 4G,IETT-B5090,IETT Otobus,0,0
1285,Mobil,Otobus 4G,IETT-B5091,IETT Otobus,0,0
1286,Mobil,Otobus 4G,IETT-B5092,IETT Otobus,0,0
1287,Mobil,Otobus 4G,IETT-B5093,IETT Otobus,0,0
1288,Mobil,Otobus 4G,IETT-B5094,IETT Otobus,0,0
1289,Mobil,Otobus 4G,IETT-B5095,IETT Otobus,0,0
1290,Mobil,Otobus 4G,IETT-B5096,IETT Otobus,0,0
1291,Mobil,Otobus 4G,IETT-B5097,IETT Otobus,0,0
1292,Mobil,Otobus 4G,IETT-B5098,IETT Otobus,0,0
1293,Mobil,Otobus 4G,IETT-B5099,IETT Otobus,0,0
1294,Mobil,Otobus 4G,IETT-B5100,IETT Otobus,0,0
1295,Mobil,Otobus 4G,IETT-B5101,IETT Otobus,0,0
1296,Mobil,Otobus 4G,IETT-B5102,IETT Otobus,0,0
1297,Mobil,Otobus 4G,IETT-B5103,IETT Otobus,0,0
1298,Mobil,Otobus 4G,IETT-B5104,IETT Otobus,0,0
1299,Mobil,Otobus 4G,IETT-B5105,IETT Otobus,0,0
1300,Mobil,Otobus 4G,IETT-B5106,IETT Otobus,0,0
1301,Mobil,Otobus 4G,IETT-B5107,IETT Otobus,0,0
1302,Mobil,Otobus 4G,IETT-B5108,IETT Otobus,0,0
1303,Mobil,Otobus 4G,IETT-B5109,IETT Otobus,0,0
1304,Mobil,Otobus 4G,IETT-B5110,IETT Otobus,0,0
1305,Mobil,Otobus 4G,IETT-B5111,IETT Otobus,0,0
1306,Mobil,Otobus 4G,IETT-B5112,IETT Otobus,0,0
1307,Mobil,Otobus 4G,IETT-B5113,IETT Otobus,0,0
1308,Mobil,Otobus 4G,IETT-B5114,IETT Otobus,0,0
1309,Mobil,Otobus 4G,IETT-B5115,IETT Otobus,0,0
1310,Mobil,Otobus 4G,IETT-B5116,IETT Otobus,0,0
1311,Mobil,Otobus 4G,IETT-B5117,IETT Otobus,0,0
1312,Mobil,Otobus 4G,IETT-B5118,IETT Otobus,0,0
1313,Mobil,Otobus 4G,IETT-B5119,IETT Otobus,0,0
1314,Mobil,Otobus 4G,IETT-B5120,IETT Otobus,0,0
1315,Mobil,Otobus 4G,IETT-B5121,IETT Otobus,0,0
1316,Mobil,Otobus 4G,IETT-B5122,IETT Otobus,0,0
1317,Mobil,Otobus 4G,IETT-B5123,IETT Otobus,0,0
1318,Mobil,Otobus 4G,IETT-B5124,IETT Otobus,0,0
1319,Mobil,Otobus 4G,IETT-B5125,IETT Otobus,0,0
1320,Mobil,Otobus 4G,IETT-B5126,IETT Otobus,0,0
1321,Mobil,Otobus 4G,IETT-B5127,IETT Otobus,0,0
1322,Mobil,Otobus 4G,IETT-B5128,IETT Otobus,0,0
1323,Mobil,Otobus 4G,IETT-B5129,IETT Otobus,0,0
1324,Mobil,Otobus 4G,IETT-B5130,IETT Otobus,0,0
1325,Mobil,Otobus 4G,IETT-B5131,IETT Otobus,0,0
1326,Mobil,Otobus 4G,IETT-B5132,IETT Otobus,0,0
1327,Mobil,Otobus 4G,IETT-B5133,IETT Otobus,0,0
1328,Mobil,Otobus 4G,IETT-B5134,IETT Otobus,0,0
1329,Mobil,Otobus 4G,IETT-B5135,IETT Otobus,0,0
1330,Mobil,Otobus 4G,IETT-B5136,IETT Otobus,0,0
1331,Mobil,Otobus 4G,IETT-B5137,IETT Otobus,0,0
1332,Mobil,Otobus 4G,IETT-B5138,IETT Otobus,0,0
1333,Mobil,Otobus 4G,IETT-B5139,IETT Otobus,0,0
1334,Mobil,Otobus 4G,IETT-B5140,IETT Otobus,0,0
1335,Mobil,Otobus 4G,IETT-B5141,IETT Otobus,0,0
1336,Mobil,Otobus 4G,IETT-B5142,IETT Otobus,0,0
1337,Mobil,Otobus 4G,IETT-B5143,IETT Otobus,0,0
1338,Mobil,Otobus 4G,IETT-B5144,IETT Otobus,0,0
1339,Mobil,Otobus 4G,IETT-B5145,IETT Otobus,0,0
1340,Mobil,Otobus 4G,IETT-B5146,IETT Otobus,0,0
1341,Mobil,Otobus 4G,IETT-B5147,IETT Otobus,0,0
1342,Mobil,Otobus 4G,IETT-B5148,IETT Otobus,0,0
1343,Mobil,Otobus 4G,IETT-B5149,IETT Otobus,0,0
1344,Mobil,Otobus 4G,IETT-B5150,IETT Otobus,0,0
1345,Mobil,Otobus 4G,IETT-B5151,IETT Otobus,0,0
1346,Mobil,Otobus 4G,IETT-B5152,IETT Otobus,0,0
1347,Mobil,Otobus 4G,IETT-B5153,IETT Otobus,0,0
1348,Mobil,Otobus 4G,IETT-B5154,IETT Otobus,0,0
1349,Mobil,Otobus 4G,IETT-B5155,IETT Otobus,0,0
1350,Mobil,Otobus 4G,IETT-B5156,IETT Otobus,0,0
1351,Mobil,Otobus 4G,IETT-B5157,IETT Otobus,0,0
1352,Mobil,Otobus 4G,IETT-B5158,IETT Otobus,0,0
1353,Mobil,Otobus 4G,IETT-B5159,IETT Otobus,0,0
1354,Mobil,Otobus 4G,IETT-B5160,IETT Otobus,0,0
1355,Mobil,Otobus 4G,IETT-B5161,IETT Otobus,0,0
1356,Mobil,Otobus 4G,IETT-B5162,IETT Otobus,0,0
1357,Mobil,Otobus 4G,IETT-B5163,IETT Otobus,0,0
1358,Mobil,Otobus 4G,IETT-B5165,IETT Otobus,0,0
1359,Mobil,Otobus 4G,IETT-B5166,IETT Otobus,0,0
1360,Mobil,Otobus 4G,IETT-B5167,IETT Otobus,0,0
1361,Mobil,Otobus 4G,IETT-B5168,IETT Otobus,0,0
1362,Mobil,Otobus 4G,IETT-B5169,IETT Otobus,0,0
1363,Mobil,Otobus 4G,IETT-B5170,IETT Otobus,0,0
1364,Mobil,Otobus 4G,IETT-B5171,IETT Otobus,0,0
1365,Mobil,Otobus 4G,IETT-B5172,IETT Otobus,0,0
1366,Mobil,Otobus 4G,IETT-B5173,IETT Otobus,0,0
1367,Mobil,Otobus 4G,IETT-B5175,IETT Otobus,0,0
1368,Mobil,Otobus 4G,IETT-B5176,IETT Otobus,0,0
1369,Mobil,Otobus 4G,IETT-B5177,IETT Otobus,0,0
1370,Mobil,Otobus 4G,IETT-B5178,IETT Otobus,0,0
1371,Mobil,Otobus 4G,IETT-B5179,IETT Otobus,0,0
1372,Mobil,Otobus 4G,IETT-B5180,IETT Otobus,0,0
1373,Mobil,Otobus 4G,IETT-B5181,IETT Otobus,0,0
1374,Mobil,Otobus 4G,IETT-B5182,IETT Otobus,0,0
1375,Mobil,Otobus 4G,IETT-B5183,IETT Otobus,0,0
1376,Mobil,Otobus 4G,IETT-B5184,IETT Otobus,0,0
1377,Mobil,Otobus 4G,IETT-B5185,IETT Otobus,0,0
1378,Mobil,Otobus 4G,IETT-B5186,IETT Otobus,0,0
1379,Mobil,Otobus 4G,IETT-B5187,IETT Otobus,0,0
1380,Mobil,Otobus 4G,IETT-B5188,IETT Otobus,0,0
1381,Mobil,Otobus 4G,IETT-B5189,IETT Otobus,0,0
1382,Mobil,Otobus 4G,IETT-B5190,IETT Otobus,0,0
1383,Mobil,Otobus 4G,IETT-B5191,IETT Otobus,0,0
1384,Mobil,Otobus 4G,IETT-B5192,IETT Otobus,0,0
1385,Mobil,Otobus 4G,IETT-B5193,IETT Otobus,0,0
1386,Mobil,Otobus 4G,IETT-B5194,IETT Otobus,0,0
1387,Mobil,Otobus 4G,IETT-B5195,IETT Otobus,0,0
1388,Mobil,Otobus 4G,IETT-B5196,IETT Otobus,0,0
1389,Mobil,Otobus 4G,IETT-B5197,IETT Otobus,0,0
1390,Mobil,Otobus 4G,IETT-B5198,IETT Otobus,0,0
1391,Mobil,Otobus 4G,IETT-B5199,IETT Otobus,0,0
1392,Mobil,Otobus 4G,IETT-B5200,IETT Otobus,0,0
1393,Mobil,Otobus 4G,IETT-B5201,IETT Otobus,0,0
1394,Mobil,Otobus 4G,IETT-B5202,IETT Otobus,0,0
1395,Mobil,Otobus 4G,IETT-B5203,IETT Otobus,0,0
1396,Mobil,Otobus 4G,IETT-B5204,IETT Otobus,0,0
1397,Mobil,Otobus 4G,IETT-B5205,IETT Otobus,0,0
1398,Mobil,Otobus 4G,IETT-B5206,IETT Otobus,0,0
1399,Mobil,Otobus 4G,IETT-B5207,IETT Otobus,0,0
1400,Mobil,Otobus 4G,IETT-B5208,IETT Otobus,0,0
1401,Mobil,Otobus 4G,IETT-B5209,IETT Otobus,0,0
1402,Mobil,Otobus 4G,IETT-B5210,IETT Otobus,0,0
1403,Mobil,Otobus 4G,IETT-B5211,IETT Otobus,0,0
1404,Mobil,Otobus 4G,IETT-B5212,IETT Otobus,0,0
1405,Mobil,Otobus 4G,IETT-B5213,IETT Otobus,0,0
1406,Mobil,Otobus 4G,IETT-B5214,IETT Otobus,0,0
1407,Mobil,Otobus 4G,IETT-B5215,IETT Otobus,0,0
1408,Mobil,Otobus 4G,IETT-B5216,IETT Otobus,0,0
1409,Mobil,Otobus 4G,IETT-B5217,IETT Otobus,0,0
1410,Mobil,Otobus 4G,IETT-B5218,IETT Otobus,0,0
1411,Mobil,Otobus 4G,IETT-B5219,IETT Otobus,0,0
1412,Mobil,Otobus 4G,IETT-B5220,IETT Otobus,0,0
1413,Mobil,Otobus 4G,IETT-B5221,IETT Otobus,0,0
1414,Mobil,Otobus 4G,IETT-B5222,IETT Otobus,0,0
1415,Mobil,Otobus 4G,IETT-B5223,IETT Otobus,0,0
1416,Mobil,Otobus 4G,IETT-B5224,IETT Otobus,0,0
1417,Mobil,Otobus 4G,IETT-B5225,IETT Otobus,0,0
1418,Mobil,Otobus 4G,IETT-B5226,IETT Otobus,0,0
1419,Mobil,Otobus 4G,IETT-B5227,IETT Otobus,0,0
1420,Mobil,Otobus 4G,IETT-B5228,IETT Otobus,0,0
1421,Mobil,Otobus 4G,IETT-B5229,IETT Otobus,0,0
1422,Mobil,Otobus 4G,IETT-B5230,IETT Otobus,0,0
1423,Mobil,Otobus 4G,IETT-B5231,IETT Otobus,0,0
1424,Mobil,Otobus 4G,IETT-B5232,IETT Otobus,0,0
1425,Mobil,Otobus 4G,IETT-B5233,IETT Otobus,0,0
1426,Mobil,Otobus 4G,IETT-B5234,IETT Otobus,0,0
1427,Mobil,Otobus 4G,IETT-B5235,IETT Otobus,0,0
1428,Mobil,Otobus 4G,IETT-B5236,IETT Otobus,0,0
1429,Mobil,Otobus 4G,IETT-B5237,IETT Otobus,0,0
1430,Mobil,Otobus 4G,IETT-B5238,IETT Otobus,0,0
1431,Mobil,Otobus 4G,IETT-B5239,IETT Otobus,0,0
1432,Mobil,Otobus 4G,IETT-B5240,IETT Otobus,0,0
1433,Mobil,Otobus 4G,IETT-B5241,IETT Otobus,0,0
1434,Mobil,Otobus 4G,IETT-B5242,IETT Otobus,0,0
1435,Mobil,Otobus 4G,IETT-B5243,IETT Otobus,0,0
1436,Mobil,Otobus 4G,IETT-B5244,IETT Otobus,0,0
1437,Mobil,Otobus 4G,IETT-B5245,IETT Otobus,0,0
1438,Mobil,Otobus 4G,IETT-B5246,IETT Otobus,0,0
1439,Mobil,Otobus 4G,IETT-B5247,IETT Otobus,0,0
1440,Mobil,Otobus 4G,IETT-B5248,IETT Otobus,0,0
1441,Mobil,Otobus 4G,IETT-B5249,IETT Otobus,0,0
1442,Mobil,Otobus 4G,IETT-B5250,IETT Otobus,0,0
1443,Mobil,Otobus 4G,IETT-B5251,IETT Otobus,0,0
1444,Mobil,Otobus 4G,IETT-B5252,IETT Otobus,0,0
1445,Mobil,Otobus 4G,IETT-B5253,IETT Otobus,0,0
1446,Mobil,Otobus 4G,IETT-B5254,IETT Otobus,0,0
1447,Mobil,Otobus 4G,IETT-B5255,IETT Otobus,0,0
1448,Mobil,Otobus 4G,IETT-B5256,IETT Otobus,0,0
1449,Mobil,Otobus 4G,IETT-B5257,IETT Otobus,0,0
1450,Mobil,Otobus 4G,IETT-B5258,IETT Otobus,0,0
1451,Mobil,Otobus 4G,IETT-B5259,IETT Otobus,0,0
1452,Mobil,Otobus 4G,IETT-B5260,IETT Otobus,0,0
1453,Mobil,Otobus 4G,IETT-B5261,IETT Otobus,0,0
1454,Mobil,Otobus 4G,IETT-B5262,IETT Otobus,0,0
1455,Mobil,Otobus 4G,IETT-B5263,IETT Otobus,0,0
1456,Mobil,Otobus 4G,IETT-B5264,IETT Otobus,0,0
1457,Mobil,Otobus 4G,IETT-B5265,IETT Otobus,0,0
1458,Mobil,Otobus 4G,IETT-B5266,IETT Otobus,0,0
1459,Mobil,Otobus 4G,IETT-B5267,IETT Otobus,0,0
1460,Mobil,Otobus 4G,IETT-B5268,IETT Otobus,0,0
1461,Mobil,Otobus 4G,IETT-B5269,IETT Otobus,0,0
1462,Mobil,Otobus 4G,IETT-B5270,IETT Otobus,0,0
1463,Mobil,Otobus 4G,IETT-B5271,IETT Otobus,0,0
1464,Mobil,Otobus 4G,IETT-B5272,IETT Otobus,0,0
1465,Mobil,Otobus 4G,IETT-B5273,IETT Otobus,0,0
1466,Mobil,Otobus 4G,IETT-B5274,IETT Otobus,0,0
1467,Mobil,Otobus 4G,IETT-B5275,IETT Otobus,0,0
1468,Mobil,Otobus 4G,IETT-B5276,IETT Otobus,0,0
1469,Mobil,Otobus 4G,IETT-B5277,IETT Otobus,0,0
1470,Mobil,Otobus 4G,IETT-B5278,IETT Otobus,0,0
1471,Mobil,Otobus 4G,IETT-B5279,IETT Otobus,0,0
1472,Mobil,Otobus 4G,IETT-B5280,IETT Otobus,0,0
1473,Mobil,Otobus 4G,IETT-B5281,IETT Otobus,0,0
1474,Mobil,Otobus 4G,IETT-B5282,IETT Otobus,0,0
1475,Mobil,Otobus 4G,IETT-B5283,IETT Otobus,0,0
1476,Mobil,Otobus 4G,IETT-B5284,IETT Otobus,0,0
1477,Mobil,Otobus 4G,IETT-B5285,IETT Otobus,0,0
1478,Mobil,Otobus 4G,IETT-B5286,IETT Otobus,0,0
1479,Mobil,Otobus 4G,IETT-B5287,IETT Otobus,0,0
1480,Mobil,Otobus 4G,IETT-B5288,IETT Otobus,0,0
1481,Mobil,Otobus 4G,IETT-B5289,IETT Otobus,0,0
1482,Mobil,Otobus 4G,IETT-B5290,IETT Otobus,0,0
1483,Mobil,Otobus 4G,IETT-B5291,IETT Otobus,0,0
1484,Mobil,Otobus 4G,IETT-B5292,IETT Otobus,0,0
1485,Mobil,Otobus 4G,IETT-B5293,IETT Otobus,0,0
1486,Mobil,Otobus 4G,IETT-B5294,IETT Otobus,0,0
1487,Mobil,Otobus 4G,IETT-B5295,IETT Otobus,0,0
1488,Mobil,Otobus 4G,IETT-B5296,IETT Otobus,0,0
1489,Mobil,Otobus 4G,IETT-B5297,IETT Otobus,0,0
1490,Mobil,Otobus 4G,IETT-B5298,IETT Otobus,0,0
1491,Mobil,Otobus 4G,IETT-B5299,IETT Otobus,0,0
1492,Mobil,Otobus 4G,IETT-B5300,IETT Otobus,0,0
1493,Mobil,Otobus 4G,IETT-B5301,IETT Otobus,0,0
1494,Mobil,Otobus 4G,IETT-B5302,IETT Otobus,0,0
1495,Mobil,Otobus 4G,IETT-B5303,IETT Otobus,0,0
1496,Mobil,Otobus 4G,IETT-B5304,IETT Otobus,0,0
1497,Mobil,Otobus 4G,IETT-B5305,IETT Otobus,0,0
1498,Mobil,Otobus 4G,IETT-B5306,IETT Otobus,0,0
1499,Mobil,Otobus 4G,IETT-B5307,IETT Otobus,0,0
1500,Mobil,Otobus 4G,IETT-B5308,IETT Otobus,0,0
1501,Mobil,Otobus 4G,IETT-B5309,IETT Otobus,0,0
1502,Mobil,Otobus 4G,IETT-B5310,IETT Otobus,0,0
1503,Mobil,Otobus 4G,IETT-B5311,IETT Otobus,0,0
1504,Mobil,Otobus 4G,IETT-B5312,IETT Otobus,0,0
1505,Mobil,Otobus 4G,IETT-B5313,IETT Otobus,0,0
1506,Mobil,Otobus 4G,IETT-B5314,IETT Otobus,0,0
1507,Mobil,Otobus 4G,IETT-B5315,IETT Otobus,0,0
1508,Mobil,Otobus 4G,IETT-B5316,IETT Otobus,0,0
1509,Mobil,Otobus 4G,IETT-B5317,IETT Otobus,0,0
1510,Mobil,Otobus 4G,IETT-B5318,IETT Otobus,0,0
1511,Mobil,Otobus 4G,IETT-B5319,IETT Otobus,0,0
1512,Mobil,Otobus 4G,IETT-B5320,IETT Otobus,0,0
1513,Mobil,Otobus 4G,IETT-B5321,IETT Otobus,0,0
1514,Mobil,Otobus 4G,IETT-B5322,IETT Otobus,0,0
1515,Mobil,Otobus 4G,IETT-B5323,IETT Otobus,0,0
1516,Mobil,Otobus 4G,IETT-B5324,IETT Otobus,0,0
1517,Mobil,Otobus 4G,IETT-B5325,IETT Otobus,0,0
1518,Mobil,Otobus 4G,IETT-B5326,IETT Otobus,0,0
1519,Mobil,Otobus 4G,IETT-B5327,IETT Otobus,0,0
1520,Mobil,Otobus 4G,IETT-B5328,IETT Otobus,0,0
1521,Mobil,Otobus 4G,IETT-B5329,IETT Otobus,0,0
1522,Mobil,Otobus 4G,IETT-B5330,IETT Otobus,0,0
1523,Mobil,Otobus 4G,IETT-B5331,IETT Otobus,0,0
1524,Mobil,Otobus 4G,IETT-B5332,IETT Otobus,0,0
1525,Mobil,Otobus 4G,IETT-B5333,IETT Otobus,0,0
1526,Mobil,Otobus 4G,IETT-B5334,IETT Otobus,0,0
1527,Mobil,Otobus 4G,IETT-B5335,IETT Otobus,0,0
1528,Mobil,Otobus 4G,IETT-B5336,IETT Otobus,0,0
1529,Mobil,Otobus 4G,IETT-B5337,IETT Otobus,0,0
1530,Mobil,Otobus 4G,IETT-B5338,IETT Otobus,0,0
1531,Mobil,Otobus 4G,IETT-B5339,IETT Otobus,0,0
1532,Mobil,Otobus 4G,IETT-B5340,IETT Otobus,0,0
1533,Mobil,Otobus 4G,IETT-B5341,IETT Otobus,0,0
1534,Mobil,Otobus 4G,IETT-B5342,IETT Otobus,0,0
1535,Mobil,Otobus 4G,IETT-B5343,IETT Otobus,0,0
1536,Mobil,Otobus 4G,IETT-B5344,IETT Otobus,0,0
1537,Mobil,Otobus 4G,IETT-B5345,IETT Otobus,0,0
1538,Mobil,Otobus 4G,IETT-B5346,IETT Otobus,0,0
1539,Mobil,Otobus 4G,IETT-B5347,IETT Otobus,0,0
1540,Mobil,Otobus 4G,IETT-B5348,IETT Otobus,0,0
1541,Mobil,Otobus 4G,IETT-B5349,IETT Otobus,0,0
1542,Mobil,Otobus 4G,IETT-B5350,IETT Otobus,0,0
1543,Mobil,Otobus 4G,IETT-B5351,IETT Otobus,0,0
1544,Mobil,Otobus 4G,IETT-B5352,IETT Otobus,0,0
1545,Mobil,Otobus 4G,IETT-B5353,IETT Otobus,0,0
1546,Mobil,Otobus 4G,IETT-B5354,IETT Otobus,0,0
1547,Mobil,Otobus 4G,IETT-B5355,IETT Otobus,0,0
1548,Mobil,Otobus 4G,IETT-B5356,IETT Otobus,0,0
1549,Mobil,Otobus 4G,IETT-B5357,IETT Otobus,0,0
1550,Mobil,Otobus 4G,IETT-B5358,IETT Otobus,0,0
1551,Mobil,Otobus 4G,IETT-B5359,IETT Otobus,0,0
1552,Mobil,Otobus 4G,IETT-B5360,IETT Otobus,0,0
1553,Mobil,Otobus 4G,IETT-B5361,IETT Otobus,0,0
1554,Mobil,Otobus 4G,IETT-B5362,IETT Otobus,0,0
1555,Mobil,Otobus 4G,IETT-B5363,IETT Otobus,0,0
1556,Mobil,Otobus 4G,IETT-B5364,IETT Otobus,0,0
1557,Mobil,Otobus 4G,IETT-B5365,IETT Otobus,0,0
1558,Mobil,Otobus 4G,IETT-B5366,IETT Otobus,0,0
1559,Mobil,Otobus 4G,IETT-B5367,IETT Otobus,0,0
1560,Mobil,Otobus 4G,IETT-B5368,IETT Otobus,0,0
1561,Mobil,Otobus 4G,IETT-B5369,IETT Otobus,0,0
1562,Mobil,Otobus 4G,IETT-B5370,IETT Otobus,0,0
1563,Mobil,Otobus 4G,IETT-B5371,IETT Otobus,0,0
1564,Mobil,Otobus 4G,IETT-B5372,IETT Otobus,0,0
1565,Mobil,Otobus 4G,IETT-B5373,IETT Otobus,0,0
1566,Mobil,Otobus 4G,IETT-B5374,IETT Otobus,0,0
1567,Mobil,Otobus 4G,IETT-B5375,IETT Otobus,0,0
1568,Mobil,Otobus 4G,IETT-K1037,IETT Otobus,0,0
1569,Mobil,Otobus 4G,IETT-K1099,IETT Otobus,0,0
1570,Mobil,Otobus 4G,IETT-K1761,IETT Otobus,0,0
1571,Mobil,Otobus 4G,IETT-K1762,IETT Otobus,0,0
1572,Mobil,Otobus 4G,IETT-K1763,IETT Otobus,0,0
1573,Mobil,Otobus 4G,IETT-K1764,IETT Otobus,0,0
1574,Mobil,Otobus 4G,IETT-K1765,IETT Otobus,0,0
1575,Mobil,Otobus 4G,IETT-K1766,IETT Otobus,0,0
1576,Mobil,Otobus 4G,IETT-K1767,IETT Otobus,0,0
1577,Mobil,Otobus 4G,IETT-K1768,IETT Otobus,0,0
1578,Mobil,Otobus 4G,IETT-K1769,IETT Otobus,0,0
1579,Mobil,Otobus 4G,IETT-K1770,IETT Otobus,0,0
1580,Mobil,Otobus 4G,IETT-K1771,IETT Otobus,0,0
1581,Mobil,Otobus 4G,IETT-K1772,IETT Otobus,0,0
1582,Mobil,Otobus 4G,IETT-K1773,IETT Otobus,0,0
1583,Mobil,Otobus 4G,IETT-K1774,IETT Otobus,0,0
1584,Mobil,Otobus 4G,IETT-K1775,IETT Otobus,0,0
1585,Mobil,Otobus 4G,IETT-K1776,IETT Otobus,0,0
1586,Mobil,Otobus 4G,IETT-K1777,IETT Otobus,0,0
1587,Mobil,Otobus 4G,IETT-K1778,IETT Otobus,0,0
1588,Mobil,Otobus 4G,IETT-K1779,IETT Otobus,0,0
1589,Mobil,Otobus 4G,IETT-K1780,IETT Otobus,0,0
1590,Mobil,Otobus 4G,IETT-K1781,IETT Otobus,0,0
1591,Mobil,Otobus 4G,IETT-K1782,IETT Otobus,0,0
1592,Mobil,Otobus 4G,IETT-K1783,IETT Otobus,0,0
1593,Mobil,Otobus 4G,IETT-K1784,IETT Otobus,0,0
1594,Mobil,Otobus 4G,IETT-K1785,IETT Otobus,0,0
1595,Mobil,Otobus 4G,IETT-K1786,IETT Otobus,0,0
1596,Mobil,Otobus 4G,IETT-K1787,IETT Otobus,0,0
1597,Mobil,Otobus 4G,IETT-K1788,IETT Otobus,0,0
1598,Mobil,Otobus 4G,IETT-K1789,IETT Otobus,0,0
1599,Mobil,Otobus 4G,IETT-K1790,IETT Otobus,0,0
1600,Mobil,Otobus 4G,IETT-K1791,IETT Otobus,0,0
1601,Mobil,Otobus 4G,IETT-K1792,IETT Otobus,0,0
1602,Mobil,Otobus 4G,IETT-K1794,IETT Otobus,0,0
1603,Mobil,Otobus 4G,IETT-K1795,IETT Otobus,0,0
1604,Mobil,Otobus 4G,IETT-K1796,IETT Otobus,0,0
1605,Mobil,Otobus 4G,IETT-K1797,IETT Otobus,0,0
1606,Mobil,Otobus 4G,IETT-K1798,IETT Otobus,0,0
1607,Mobil,Otobus 4G,IETT-K1799,IETT Otobus,0,0
1608,Mobil,Otobus 4G,IETT-K1800,IETT Otobus,0,0
1609,Mobil,Otobus 4G,IETT-M2501,IETT Otobus,0,0
1610,Mobil,Otobus 4G,IETT-M2502,IETT Otobus,0,0
1611,Mobil,Otobus 4G,IETT-M2503,IETT Otobus,0,0
1612,Mobil,Otobus 4G,IETT-M2504,IETT Otobus,0,0
1613,Mobil,Otobus 4G,IETT-M2505,IETT Otobus,0,0
1614,Mobil,Otobus 4G,IETT-M2506,IETT Otobus,0,0
1615,Mobil,Otobus 4G,IETT-M2507,IETT Otobus,0,0
1616,Mobil,Otobus 4G,IETT-M2508,IETT Otobus,0,0
1617,Mobil,Otobus 4G,IETT-M2509,IETT Otobus,0,0
1618,Mobil,Otobus 4G,IETT-M2510,IETT Otobus,0,0
1619,Mobil,Otobus 4G,IETT-M2511,IETT Otobus,0,0
1620,Mobil,Otobus 4G,IETT-M2512,IETT Otobus,0,0
1621,Mobil,Otobus 4G,IETT-M2513,IETT Otobus,0,0
1622,Mobil,Otobus 4G,IETT-M2514,IETT Otobus,0,0
1623,Mobil,Otobus 4G,IETT-M2515,IETT Otobus,0,0
1624,Mobil,Otobus 4G,IETT-M2516,IETT Otobus,0,0
1625,Mobil,Otobus 4G,IETT-M2517,IETT Otobus,0,0
1626,Mobil,Otobus 4G,IETT-M2518,IETT Otobus,0,0
1627,Mobil,Otobus 4G,IETT-M2519,IETT Otobus,0,0
1628,Mobil,Otobus 4G,IETT-M2520,IETT Otobus,0,0
1629,Mobil,Otobus 4G,IETT-M2521,IETT Otobus,0,0
1630,Mobil,Otobus 4G,IETT-M2522,IETT Otobus,0,0
1631,Mobil,Otobus 4G,IETT-M2523,IETT Otobus,0,0
1632,Mobil,Otobus 4G,IETT-M2524,IETT Otobus,0,0
1633,Mobil,Otobus 4G,IETT-M2525,IETT Otobus,0,0
1634,Mobil,Otobus 4G,IETT-M2526,IETT Otobus,0,0
1635,Mobil,Otobus 4G,IETT-M2527,IETT Otobus,0,0
1636,Mobil,Otobus 4G,IETT-M2528,IETT Otobus,0,0
1637,Mobil,Otobus 4G,IETT-M2530,IETT Otobus,0,0
1638,Mobil,Otobus 4G,IETT-M2532,IETT Otobus,0,0
1639,Mobil,Otobus 4G,IETT-M2533,IETT Otobus,0,0
1640,Mobil,Otobus 4G,IETT-M2534,IETT Otobus,0,0
1641,Mobil,Otobus 4G,IETT-M2535,IETT Otobus,0,0
1642,Mobil,Otobus 4G,IETT-M2536,IETT Otobus,0,0
1643,Mobil,Otobus 4G,IETT-M2537,IETT Otobus,0,0
1644,Mobil,Otobus 4G,IETT-M2538,IETT Otobus,0,0
1645,Mobil,Otobus 4G,IETT-M2539,IETT Otobus,0,0
1646,Mobil,Otobus 4G,IETT-M2540,IETT Otobus,0,0
1647,Mobil,Otobus 4G,IETT-M2541,IETT Otobus,0,0
1648,Mobil,Otobus 4G,IETT-M2542,IETT Otobus,0,0
1649,Mobil,Otobus 4G,IETT-M2543,IETT Otobus,0,0
1650,Mobil,Otobus 4G,IETT-M2544,IETT Otobus,0,0
1651,Mobil,Otobus 4G,IETT-M2545,IETT Otobus,0,0
1652,Mobil,Otobus 4G,IETT-M2546,IETT Otobus,0,0
1653,Mobil,Otobus 4G,IETT-M2547,IETT Otobus,0,0
1654,Mobil,Otobus 4G,IETT-M2548,IETT Otobus,0,0
1655,Mobil,Otobus 4G,IETT-M2549,IETT Otobus,0,0
1656,Mobil,Otobus 4G,IETT-M2550,IETT Otobus,0,0
1657,Mobil,Otobus 4G,IETT-M2551,IETT Otobus,0,0
1658,Mobil,Otobus 4G,IETT-M2552,IETT Otobus,0,0
1659,Mobil,Otobus 4G,IETT-M2553,IETT Otobus,0,0
1660,Mobil,Otobus 4G,IETT-M2554,IETT Otobus,0,0
1661,Mobil,Otobus 4G,IETT-M2555,IETT Otobus,0,0
1662,Mobil,Otobus 4G,IETT-M2556,IETT Otobus,0,0
1663,Mobil,Otobus 4G,IETT-M2557,IETT Otobus,0,0
1664,Mobil,Otobus 4G,IETT-M2558,IETT Otobus,0,0
